"Freq","alreadyInGazet","ordemGazet","statusInGazet","alreadyInGazet..status","add","source","status","country","stateProvince","municipality","locality","loc","loc.correct","meanLatitude","meanLongitude"
101,TRUE,21245,"ok","Yes: ok","","gbif_splink","ok","Brazil","São Paulo","Ilha Comprida","pedrinhas ( 63 ) | estrada de acesso a praia ( 42 ) | na praia em areia encharcada ( 20 ) | estrada entre a balsa e a praia de ilha comprida ( 6 ) | pedrinhas quintal ( 6 ) | proximo ao fim da av intermares perto do mar ( 6 )","brazil_sao paulo_iiha comprida","",-25.01595848,-47.87925397
101,FALSE,NA,NA,"No: add","Yes","gbif_splink","101","Brazil","São Paulo","Santo André","eb do alto da serra de paranapiacaba ( 161 ) | eb do alto da serra de paranapiacaba trilha 17 ( 8 ) | eb do alto da serra de paranapiacaba about 30 km north of santos ( 6 ) | eb do alto da serra de paranapiacaba about 30 km north of santos wet foggy evergreen forest ( 5 ) | eb do alto da serra de paranapiacaba about 30km north of santos wet foggy evergreen forest ( 5 ) | eb do alto da serra de paranapiacaba lenho na xiloteca spw 2474 ( 2 )","brazil_sao paulo_santo andre_estacao biologicado alto serra paranapiacaba","",-23.73619028,-45.84264679
101,FALSE,NA,NA,"No: add","Yes","gbif_jabot_splink","101","Brazil","São Paulo","Ubatuba","trilha da almada km 13 da rodovia rio/santos ( 158 ) | trilha da almada km 13 da rodovia rio/santos mata atlantica ( 8 ) | trilha da almada km 13 da rodovia rio - santos ( 6 ) | trilha da almada km 13 da rodovia rio - santos mata atlantica ( 6 ) | ubatuba trilha da almada km 13 da rodovia rio/santos mata atlantica ( 6 ) | km 13 da rodovia rio/santos mata atlantica trilha da almada ( 4 )","brazil_sao paulo_ubatuba_km 13 rodovia rio","",-23.35,-44.86666689
102,FALSE,NA,NA,"No: add","Yes","gbif_splink","102","Brazil","São Paulo","Amparo","jardim botanico arariba rppn sitio duas cachoeiras jardim botanico arariba rppn ( 272 ) | jardim botanico arariba rppn sitio duas cachoeiras jardim botanico arariba rppn caminho das moradas ( 46 ) | jardim botanico arariba rppn sitio duas cachoeiras jardim botanico arariba rppn alameda central ( 26 ) | jardim botanico arariba rppn sitio duas cachoeiras jardim botanico arariba rppn caminho das colinas ( 12 ) | jardim botanico arariba rppn sitio duas cachoeiras jardim botanico arariba rppn casa das ovelhas ( 12 ) | jardim botanico arariba rppn sitio duas cachoeiras jardim botanico arariba rppn caminho das moradas - casa do guaraci ( 6 )","brazil_sao paulo_amparo_jardim botanico arariba rppn, rppn","",-22.7575,-46.808333
103,FALSE,NA,NA,"No: add","Yes","gbif_jabot_reflora_splink","103","Brazil","São Paulo","Juquiá","trilha da casa da pedra uhe da serraria floresta ombrofila densa ( 223 ) | trilha da casa da pedra uhe da serraria ( 23 ) | trilha da casa da pedra ( 7 ) | trilha da casa de pedra uhe da serraria ( 3 ) | trilha da casa da pedra (uhe) da serraria ( 2 )","brazil_sao paulo_juquia_trilha casa pedra","",-24.17211315,-47.57736865
103,FALSE,NA,NA,"No: add","Yes","gbif_splink","103","Brazil","São Paulo","Santos","monumento nacional ruinas engenho sao jorge dos erasmos","brazil_sao paulo_santos_monumento nacional ruinas engenho sao jorge erasmos","",-23.947778,-46.363333
104,FALSE,NA,NA,"No: add","Yes","gbif_splink","104","Brazil","São Paulo","Monte Alegre do Sul","ee do iac ( 49 ) | ee monte alegre ( 20 ) | ee do iac regiao montanhosa mata ( 15 ) | e e do iac ( 11 ) | e e do iac regiao montanhosa mata ( 8 ) | ee monte alegre regiao montanhosa ( 7 )","brazil_sao paulo_monte alegre sul_e","",-22.68025004,-46.68010322
105,FALSE,NA,NA,"No: add","Yes","gbif_splink","105","Brazil","São Paulo","Amparo","jardim botanico arariba rppn sitio duas cachoeiras jardim botanico arariba rppn ( 272 ) | jardim botanico arariba rppn sitio duas cachoeiras jardim botanico arariba rppn caminho das moradas ( 46 ) | jardim botanico arariba rppn sitio duas cachoeiras jardim botanico arariba rppn alameda central ( 26 ) | jardim botanico arariba rppn sitio duas cachoeiras jardim botanico arariba rppn caminho das colinas ( 12 ) | jardim botanico arariba rppn sitio duas cachoeiras jardim botanico arariba rppn casa das ovelhas ( 12 ) | jardim botanico arariba rppn sitio duas cachoeiras jardim botanico arariba rppn #?# amparo sp curva da marcenaria - casa amarela ( 6 )","brazil_sao paulo_jardim botanico arariba rppn","",-22.7575,-46.808333
106,FALSE,NA,NA,"No: add","Yes","gbif","106","Brazil","São Paulo","parque ecologico do tiete","parque ecologico do tiete sp ( 65 ) | parque ecologico do tiete sao paulo - sp brasil ( 28 ) | parque ecologico do tiete ( 8 ) | parque ecologico do tiete sao paulo sp br ( 5 )","brazil_sao paulo_parque ecologico tiete_parque ecologico tiete","",-23.49292642,-46.51902725
107,FALSE,NA,NA,"No: add","Yes","gbif_splink","107","Brazil","São Paulo","São Carlos","parcela sca_01 ( 55 ) | parcela sca_06 ( 46 ) | parcela sca_05 ( 44 ) | parcela sca_08 ( 40 ) | parcela sca_03 ( 31 ) | parcela sca_02 ( 2 )","brazil_sao paulo_sao carlos_parcela sca","",-22.14679287,-47.85065795
108,FALSE,NA,NA,"No: add","Yes","gbif_jabot_splink","108","Brazil","São Paulo","Tietê","iac estacao experimental ( 196 ) | iac estacao experimental fragmento proximo a sede e ao canal de escoamento da antiga represa ( 27 ) | iac estacao experimental de tiete ( 3 ) | iac estacao experimental fragamento proximo a sede e ao canal de escoamento da antiga represa ( 2 ) | iac estacao experimental proximo ao rio ( 2 )","brazil_sao paulo_tiete_iac","",-23.10250908,-47.7188886
108,FALSE,NA,NA,"No: add","Yes","gbif_jabot_splink","108","Brazil","São Paulo","Pariquera-Açu","estrada para cananeia ( 155 ) | estrada para cananeia vegetacao: transicao restinga de encosta ( 19 ) | estrada para cananeia transicao restinga de encosta ( 8 ) | pariquera-acu estrada para cananeia ( 6 ) | estrada para cananeia vegetacao: transicao restinga-mata de encosta ( 5 ) | estrada para cananeia vegetacao transicao restinga mata de encosta ( 4 )","brazil_sao paulo_pariquera acu_estrada para cananeia","",-24.87261896,-47.85393876
108,FALSE,NA,NA,"No: add","Yes","splink","108","Brazil","São Paulo","Mairiporã","mato dentro (serra da cantareira) ( 95 ) | mato dentro (serra da cantareira) serra da cantareira ( 13 )","brazil_sao paulo_mato dentro","",-23.309999,-46.580002
111,TRUE,31973,"377","Yes: to do","","gbif_jabot_reflora_splink","377","Brazil","São Paulo","São José dos Campos","flora da reserva florestal da boa vista ( 183 ) | flora da reserva florestal da boa vista mata do horto ( 15 ) | flora da reserva florestal da boa vista mata da estufa ( 5 ) | flora da reserva florestal da boa vista horto florestal ( 4 ) | flora da reserva florestal de boa vista ( 4 ) | flora da reserva florestal da boa vista folha: sf-23-y-d ( 3 )","brazil_sao paulo_sao jose campos_flora reserva florestal boa vista","",-23.08703565,-45.94234491
111,TRUE,33296,"129","Yes: to do","","gbif_splink","129","Brazil","São Paulo","Ibiúna","parque estadual de jurupara ( 37 ) | parque estadual do jurupara ( 20 ) | parque estadual de jurupara base roda d'agua ( 15 ) | parque estadual de jurupara base fumaca ( 12 ) | parque estadual de jurupara cachoeira do franca ( 12 ) | parque estadual de jurupara regiao da agua da carapuca na margem do caminho ( 4 )","brazil_sao paulo_ibiuna_parque estadual jurupara","",-23.65009424,-47.22001187
112,FALSE,NA,NA,"No: add","Yes","gbif_jabot_reflora_splink","112","Brazil","São Paulo","São Pedro","cachoeira da peroba ( 173 ) | cachoeira da peroba floresta ombrofila semidecidua de encosta que recobre a frente de um trecho de cuesta basaltica ( 5 ) | cachoeira da peroba floresta mesofila semidecidua de encosta que recobre a frente de um trecho de cuesta basaltica ( 4 ) | cachoeira da peroba&nf;22º 32' 15''s&nf;47º 56' 20'' wg ( 3 ) | cachoeira da peroba floresta mesofila semidecidua de encosta ( 2 ) | cachoeira da peroba floresta mesofila semidecidua de encosta que recobre a frente de um trecho de cuesta basaltica no rio entre a primeira e segunda cachoeira ( 2 )","brazil_sao paulo_sao pedro_cachoeira peroba","",-22.53542508,-47.93147381
112,FALSE,NA,NA,"No: add","Yes","gbif_splink","112","Brazil","São Paulo","Tietê","estacao experimental do iac ( 130 ) | estacao experimental do iac regiao de matas ( 30 ) | estacao experimental do iac regiao de m ( 4 ) | estacao experimental do iac estacao experimental do iac regiao de matas ( 2 ) | estacao experimental do iac terreno ondulado soo arenoso mata mesofila semi-decidua com muitas terpadeiras e pouco estrato herbaceo ( 2 ) | estacao experimental do iac ee de tiete ( 1 )","brazil_sao paulo_tiete_estacao experimental iac","",-23.10070895,-47.71165039
115,TRUE,33812,"105","Yes: to do","","gbif_reflora_splink","115","Brazil","São Paulo","Itirapina","estacao experimental do instituto florestal ( 112 ) | estacao experimental do instituto florestal area de cerrado ( 5 ) | estacao experimental do instituto florestal coordenada calculada ( 3 ) | estacao experimental do instituto florestal folha cartografica sf-23-y-a coordenada calculada ( 3 ) | estacao experimental instituto florestal ( 2 ) | estacao experimental do instituto florestal arredores ( 1 )","brazil_sao paulo_itirapina_estacao experimental instituto florestal","",-22.25019929,-47.82016908
116,FALSE,NA,NA,"No: add","Yes","gbif_jabot_splink","116","Brazil","São Paulo","Itirapina","cerrado de itirapina ( 191 ) | cerrado de itirapina localidade: pedregulho ( 2 ) | cerrado de itirapina cerrado ( 1 )","brazil_sao paulo_itirapina_cerrado itirapina","",-22.25179542,-47.8218008
116,TRUE,32757,"172","Yes: to do","","gbif_splink","172","Brazil","São Paulo","Itirapina","cerrado do valerio ( 133 ) | cerrado valerio ( 15 ) | cerrado do valerio cerrado de uba ( 1 )","brazil_sao paulo_itirapina_cerrado valerio","",-22.24231947,-47.83791225
117,FALSE,NA,NA,"No: add","Yes","gbif_jabot_splink","117","Brazil","São Paulo","Rio Claro","campus unesp bela vista ( 470 ) | campus unesp bela vista jardim experimental ( 6 ) | campus unesp-bela vista ( 6 ) | campus unesp bela vista proximo do departamento de microbiologia ( 5 ) | campus da unesp bela vista ( 4 ) | campus da unesp bela vista igce proximo ao g2 ( 4 )","brazil_sao paulo_rio claro_campus unesp bela vista","",-22.38843679,-47.54298806
118,FALSE,NA,NA,"No: add","Yes","gbif_jabot_splink","118","Brazil","São Paulo","Ubatuba","trilha e estrada da almada ( 199 ) | trilha e estrada da almada mata atlantica ( 20 ) | trilha e estrada da almada mata atlanti ( 5 ) | brasil sao paulo ubatuba trilha e estrada da almada ( 3 ) | trilha e estrada da almada  ( 2 ) | trilha e estrada da almada aprox ( 2 )","brazil_sao paulo_ubatuba_trilha e estrada almada","",-23.35,-44.86666699
118,TRUE,21740,"check","Yes: check","","gbif_splink","check","Brazil","São Paulo","Campos do Jordão ( 112 ) | serra da mantiqueira ( 81 ) | São Bento do Sapucaí ( 7 ) | Bragança Paulista ( 2 )","serra da mantiqueira ca 2 km e of campos do jordao on road to horto florestal ( 68 ) | serra de mantiqueira road to pico do itapeva ( 19 ) | serra da mantiqueira parque estadual de campos do jordao - trilha celestina ( 11 ) | serra da mantiqueira ca 2km e of campos do jordao on road to horto florestal ( 9 ) | serra da mantiqueira campos do jordao pico do itapeva ( 9 ) | serra da mantiqueira pico do itapeva ca 6 km se of campos do jordao ( 9 )","brazil_sao paulo_serra mantiqueira","",-22.73235361,-45.58675159
120,FALSE,NA,NA,"No: add","Yes","gbif_splink","120","Brazil","São Paulo","Itirapina","campo alegre ( 124 ) | campo alegre em brejo ( 3 ) | campo alegre  terreno baldio ( 1 ) | campo alegre em brejo solitario ( 1 ) | campo alegre terreno baldio ( 1 ) | campo alegreem sombra de mata ( 1 )","brazil_sao paulo_itirapina_campo alegre","",-22.24913751,-47.82599803
121,FALSE,NA,NA,"No: add","Yes","gbif_splink","121","Brazil","São Paulo","Jundiaí","unidade de desenvolvimento ambiental - unidam ( 114 ) | unidade de desenvolvimento ambiental (unidam) ( 42 ) | unidade de desenvolvimento ambiental (unidam) local: pleno sol solo: arenoso em meio a braquiaria ( 14 ) | unidade de desenvolvimento ambiental - unidam local: borda da trilha pleno sol solo: pedregoso e arenoso ( 7 ) | unidade de desenvolvimento ambiental - unidam local: borda da trilha pleno sol solo: arenoso e pedregoso ( 6 ) | unidade de desenvolvimento ambiental (unidam) local: distante da trilha copa a pleno sol solo: arenoso em meio a braquiaria ( 5 )","brazil_sao paulo_jundiai_unidade desenvolvimento ambiental","",-23.26451037,-47.42207682
121,FALSE,NA,NA,"No: add","Yes","gbif_splink","121","Brazil","São Paulo","Campos do Jordão","floresta ombrofila mista ( 135 ) | floresta ombrofila mista trilha das sete quedas ( 35 ) | floresta ombrofila mista campo aberto ( 14 ) | floresta ombrofila mista tilha da samambaia ( 2 ) | floresta ombrofila mista trilha das 7 quedas ( 1 )","brazil_sao paulo_campos jordao_floresta ombrofila mista","",-22.72935784,-45.58736201
121,TRUE,32529,"199","Yes: to do","","gbif_splink","199","Brazil","São Paulo","Iguape","estacao ecologica de chauas ( 95 ) | estacao ecologica de chauas trilha de acesso pelo sitio do sr joao cacador no km 78 da robovia pariquera-iguape ( 24 ) | estacao ecologica chauas ( 5 ) | estacao ecologica de chauas floresta ombrofila densa ( 4 ) | estacao ecologica de chauas floresta ombrofila densa trilha de acesso pelo sitio do sr joao cacador no km 78 da robovia pariquera_iguape ( 4 ) | estacao ecologica de chauas trilha de acesso pelo sitio do sr joao cacador no km 78 da robovia pariquera_iguape ( 4 )","brazil_sao paulo_iguape_estacao ecologica chauas","",-24.72097546,-47.63302495
121,FALSE,NA,NA,"No: add","Yes","gbif_jabot_reflora_splink","121","Brazil","São Paulo","Itirapina","fragmento ao lado da rodovia sao pedro/itirapina ( 85 ) | fragmento ao lado da rodovia sao pedro/itirapina cerrado ( 68 ) | fragmento ao lado da rodovia sao pedro / itirapina ( 20 ) | fragmento ao lado da rodovia sao pedro-itirapina ( 2 ) | fragmento ao lado da rodovia sao pedro/itirapina folha cartografica: sf-23-y-a ( 2 ) | fragmento ao lado da rodovia sao pedro/itirapina folha cartografica: sf-23-y-a coordenada coletada ( 1 )","brazil_sao paulo_itirapina_fragmento ao lado rodovia","",-22.27556482,-47.87898565
124,FALSE,NA,NA,"No: add","Yes","gbif_jabot_splink","124","Brazil","São Paulo","Ubatuba","trilha da almada km 13 da rodovia rio/santos ( 158 ) | trilha da almada km 13 da rodovia rio-santos ( 12 ) | trilha da almada km 13 da rodovia rio-santos mata atlantica ( 8 ) | trilha da almada km 13 da rodovia rio/santos mata atlantica ( 8 ) | trilha da almada km 13 da rodovia rio - santos ( 6 ) | trilha da almada km 13 da rodovia rio - santos mata atlantica ( 6 )","brazil_sao paulo_trilha almada","",-23.35151774,-44.86788673
127,FALSE,NA,NA,"No: add","Yes","gbif_jabot_splink","127","Brazil","São Paulo","Ubatuba","agriculture experiment station along rio comprido ( 135 ) | agriculture experiment station ( 31 ) | agriculture experiment station - forest along rio comprido ( 2 ) | agriculture experiment station forest along rio comprido fruits brown dehisced ( 2 ) | agriculture experiment station forest along rio comprimido ( 2 ) | agriculture experiment station rio comprido ( 2 )","brazil_sao paulo_ubatuba_agriculture experiment station","",-23.49107078,-45.01901175
127,TRUE,21411,"check","Yes: check","","gbif_splink","check","Brazil","São Paulo","Amparo ( 143 ) | monte alegre ( 25 )","monte alegre fazenda santa izabel ( 25 ) | monte alegre fazenda ponte alta ( 9 ) | monte alegre fazenda santa isabel ( 9 ) | monte alegre fazenda ns da encarnacao ( 7 ) | monte alegre fazenda sta izabel ( 7 ) | monte alegre ( 5 )","brazil_sao paulo_monte alegre","brazil_sao paulo_monte alegre sul",-22.69972776,-46.75917319
128,FALSE,NA,NA,"No: add","Yes","gbif_splink","128","Brazil","São Paulo","São Bento do Sapucaí","pedra do bauzinho ( 379 ) | pedra do bauzinho pedra do bauzinho ( 12 ) | pedra do bauzinho campo de altitude bastante alterado ( 11 ) | pedra bauzinho ( 2 ) | pedra da bauzinho ( 2 ) | pedra da bauzinho topo ( 2 )","brazil_sao paulo_sao bento sapucai_pedra bauzinho","",-22.68878702,-45.66591679
128,FALSE,NA,NA,"No: add","Yes","gbif_splink","128","Brazil","São Paulo","Monte Alegre do Sul","estacao experimental ( 127 ) | estacao experimental regiao montanhosa ( 6 ) | estacao experimental iac ( 5 ) | estacao experimental amparo ( 2 ) | estacao experimental picada 7 ( 1 ) | estacao experimental subosque em capoeira umida ( 1 )","brazil_sao paulo_monte alegre sul_estacao experimental","",-22.68023204,-46.68008737
130,FALSE,NA,NA,"No: add","Yes","splink","130","Brazil","São Paulo","Mogi das Cruzes","cesar de souza b rio acima apa da varzea ( 101 ) | cesar de souza apa da varzea do rio tiete ( 28 ) | cesar de souzab rio acima apa da varzea ( 5 )","brazil_sao paulo_mogi cruzes_cesar souza","",-23.53389725,-46.14527384
132,FALSE,NA,NA,"No: add","Yes","gbif_jabot_reflora_splink","132","Brazil","São Paulo","Cananéia","propriedade do sr flavio ( 277 ) | propriedade do senhor flavio ( 4 ) | propriedade do sr flavio folha cartografica sg-23-v-a coordenada coletada ( 4 ) | propriedade do sr flavio folha cartografica sg-23-v-c coordenada coletada ( 3 ) | propriedade do sr flavio folha cartografica sg-23-y-a coordenada coletada ( 3 ) | propriedade do sr flavio folha cartografica sg-23-v-a coordenada calculada ( 2 )","brazil_sao paulo_cananeia_propriedade senhor flavio","",-24.81978261,-47.86701452
132,FALSE,NA,NA,"No: add","Yes","gbif","132","Brazil","São Paulo","parque ecologico do tiete","parque ecologico do tiete sp ( 65 ) | parque ecologico do tiete sao paulo - sp brasil ( 28 ) | parque ecologico do tiete - via parque 8055 - vila santo henrique sao paulo - sp 03719-000 brasil ( 26 ) | parque ecologico do tiete ( 8 ) | parque ecologico do tiete sao paulo sp br ( 5 )","brazil_sao paulo_parque ecologico tiete","",-23.49332264,-46.51916173
138,FALSE,NA,NA,"No: add","Yes","gbif_splink","138","Brazil","São Paulo","Miracatu","reserva votorantim complexo juquia trilha entre vila dos moradores e a caixa d'agua ( 22 ) | reserva votorantim curso taxonomia de campo usp/esalq - unicamp complexo juquia trilha dezembro entre a uhe alecrim e a uhe porto raso floresta ombrofila densa na margem do rio dezembro ( 14 ) | reserva votorantim complexo juquia trilha dezembro entre a uhe alecrim e a uhe porto raso ( 13 ) | reserva votorantim complexo juquia trilha entre caixa d'agua e a vila de moradores uhe barra ( 13 ) | legado das aguas reserva votorantim ( 12 ) | curso taxonomia de campo usp/esalq - unicamp reserva votorantim complexo juquia trilha dezembro entre a uhe alecrim e uhe porto raso ( 10 )","brazil_sao paulo_miracatu_reserva votorantim","",-24.04398646,-47.36960773
142,FALSE,NA,NA,"No: add","Yes","gbif_splink","142","Brazil","São Paulo","Ibiúna","bairro dos gabriel ( 148 ) | bairro gabriel ( 58 ) | bairro dos gabriel na cachoeira do rio pirai ( 21 ) | bairro dos gabriel ca 15 km da sp-250 na altura do km 63 a esquerda ( 6 ) | bairro dos gabriel ca 8 km a direita na sp-25 ( 3 ) | bairro gabriel km 63 da sp-55 ( 2 )","brazil_sao paulo_ibiuna_bairro gabriel","",-23.65615148,-47.22240706
146,TRUE,32313,"240","Yes: to do","","gbif_jabot_reflora_splink","240","Brazil","São Paulo","São José dos Campos","reserva florestal da boa vista ( 263 ) | reserva florestal da boa vista mata do horto ( 11 ) | reserva florestal de boa vista ( 8 ) | reserva florestal boa vista mun atibain rodov dpedro ii km 79 ( 4 ) | folha cartografica sf-23-y-d coordenada calculada reserva florestal boa vista ( 3 ) | reserva florestal da boa vista horto ao lado lab folha: sf-23-y-d ( 3 )","brazil_sao paulo_sao jose campos_reserva florestal boa vista","",-23.22900313,-45.93926827
146,FALSE,NA,NA,"No: add","Yes","gbif_splink","146","Brazil","São Paulo","Bertioga","parque estadual restinga de bertioga rio itapanhau transecto tr1 ( 86 ) | parque estadual restinga de bertioga rio itapanhau transecto tr2 ( 44 ) | parque estadual restinga de bertioga rio itapanhau transecto tr1-a ( 18 ) | parque estadual restinga de bertioga rio itapanhau transecto tr1-e ( 18 ) | parque estadual restinga de bertioga rio itapanhau transecto mr1 ( 10 ) | parque estadual restinga de bertioga rio itapanhau transecto tr2-a ( 10 )","brazil_sao paulo_bertioga_parque estadual restinga bertioga","",-23.80201586,-46.12028446
148,FALSE,NA,NA,"No: no need","","gbif_splink","148","Brazil","São Paulo","av ( 243 ) | Atibaia ( 2 )","av paulo guilguer reimberg 6300 - jardim marilda sao paulo - sp 04858-570 brasil ( 160 ) | av paulo guilguer reimberg - jardim novo horizonte sao paulo - sp 04858-570 brasil ( 16 ) | av miguel estefno 3031 - parque do estado sao paulo - sp 04315 brasil ( 10 ) | av miguel estefano 3031 - parque do estado sao paulo - sp 04315 brasil ( 6 ) | av pedro paulo s/n campos do jordao - sp 12460-000 brasil ( 6 ) | av miguel estefno 3031 - vila agua funda sao paulo - sp 04301-905 brasil ( 5 )","brazil_sao paulo_av","",-23.70941314,-46.63640943
149,FALSE,NA,NA,"No: add","Yes","gbif_splink","149","Brazil","São Paulo","Botucatu","a 20 km de botucatu fazenda mac ( 116 ) | a 20 km de botucatu fazenda mac e 4 meninas ( 48 ) | a 20 km de botucatu fazenda 4 meninas e mac ( 46 ) | a 20 km de botucatu; fazenda mac e 4 meninas ( 22 ) | a 20 km de botucatu; fazenda 4 meninas e mac ( 14 ) | a 20 km de botucatu; fazenda mac ( 12 )","brazil_sao paulo_a 20 km botucatu","",-22.87483222,-48.37488815
149,FALSE,NA,NA,"No: no need","","gbif_splink","149","Brazil","São Paulo","Campinas","campinas/itatiba mata ribeirao cachoeira ( 48 ) | campinas/itatiba mata do macuco ( 42 ) | campinas - sp brasil ( 34 ) | campinas/itatiba mata malabar ii ( 24 ) | campinas/itatiba mata santana do atalaia ( 23 ) | campinas/itatiba mata capoeira grande ( 21 )","brazil_sao paulo_campinas_campinas","",-22.82705764,-46.89027621
150,FALSE,NA,NA,"No: add","Yes","gbif_splink","150","Brazil","São Paulo","Iguape","morro das pedras ( 164 ) | morro das pedras (b destroyed; lectotype designated by luer (1999): us [1208172] not seen digital image us; isolectotypes: ames [30638] r [24942] not seen digital image r; sp [8193]) ( 5 ) | morro das pedras near igaupe ( 4 ) | morro das pedras rio peroupava ( 2 ) | morro da pedras ( 1 ) | morro das pedras iguape ( 1 )","brazil_sao paulo_iguape_morro pedras","",-24.70001733,-47.54998267
150,FALSE,NA,NA,"No: add","Yes","splink","150","Brazil","São Paulo","Mogi das Cruzes","apa da varzea do rio tiete ( 42 ) | apa da varzea do rio tiete varzea local ensolarado com solo umido ( 7 ) | apa da varzea do rio tiete borda da mata local umido e sombreado ( 6 ) | apa da varzea do rio tiete dist cesar de so ambiente fechado com pouca luminosidade solo umido material coletado na mata fechada ( 6 ) | apa da varzea do rio tiete dist cesar de so campo antropico solo umido area aberta sol constante e direto ( 6 ) | apa da varzea do rio tiete borda de mata ciliar regiao sombreada ( 3 )","brazil_sao paulo_mogi cruzes_a","",-23.53338888,-46.13978111
151,TRUE,33221,"133","Yes: to do","","gbif_splink","151","Brazil","São Paulo","Miracatu","sitio irapua km 3485 da br 116 ( 21 ) | sitio irapua km 3485 br 116 ( 19 ) | sitio irapua ( 17 ) | sitio irapua br 116 km 3435 ( 17 ) | sitio irapua br-116 km 3435 ( 12 ) | sitio irapua br 116 km 3485 ( 11 )","brazil_sao paulo_miracatu_sitio irapua","",-24.28962381,-47.47582428
152,FALSE,NA,NA,"No: add","Yes","gbif_reflora_splink","152","Brazil","São Paulo","Campos do Jordão","reserva do instituto florestal sao jose dos alpes ( 43 ) | reserva do instituto florestal subida para sao jose dos alpes ( 37 ) | reserva do instituto florestal caminho da cachoeira ao longo do rio das trutas ( 22 ) | reserva do instituto florestal ( 17 ) | reserva do instituto florestal subida para sao jose dos alpes campo de altitude ( 14 ) | reserva do instituto florestal sao jose dos alpes coordenada calculada ( 13 )","brazil_sao paulo_campos jordao_reserva instituto florestal","",-22.72402722,-45.57278864
158,TRUE,33794,"106","Yes: to do","","gbif_jabot_reflora_splink","158","Brazil","São Paulo","Itirapina","rodovia washington luiz ( 109 ) | rodovia washington luiz cerrado ( 43 ) | rodovia washington luiz (lado direito sentido sao carlos) ( 33 ) | rodovia washington luiz (lado direito sentido sao carlos) 22*09'488""s 47*47'223""w cerrado ( 14 ) | rod washington luiz ( 5 ) | rodovia washington luiz brejo ( 5 )","brazil_sao paulo_itirapina_rodovia washington luiz","",-22.18565602,-47.79118145
158,FALSE,NA,NA,"No: add","Yes","splink","158","Brazil","São Paulo","Monte Alegre do Sul","amparo ( 61 ) | amparo estacao experimental ( 28 ) | amparo varzea do rio camanducaia ( 15 ) | amparo margem do rio camanducaia ( 12 ) | amparo alto do morro da capela serra negra ( 11 ) | amparo margem do rio do pinhal ( 3 )","brazil_sao paulo_monte alegre sul_amparo","",-22.68,-46.68
160,TRUE,33241,"132","Yes: to do","","gbif_jabot_splink","160","Brazil","São Paulo","Ubatuba","praia da fazenda ( 209 ) | praia da fazenda parcela a ( 42 ) | praia da fazenda restinga e mangue ( 20 ) | planicie litoranea de picinguaba praia da fazenda costao rochoso proximo ao camping ( 10 ) | praia da fazenda planicie ( 9 ) | nucleo picinguaba praia da fazenda a direita vindo do alojamento ( 8 )","brazil_sao paulo_ubatuba_praia fazenda","",-23.35581176,-44.8473589
162,FALSE,NA,NA,"No: add","Yes","gbif_splink","162","Brazil","São Paulo","São Luís do Paraitinga","pesm - nucleo santa virginia - parcela k floresta ombrofila densa montana ( 173 ) | pesm - nucleo santa virginia - parcela k ( 83 ) | pesm nucleo santa virginia - parcela k ( 37 ) | pesm nucleo santa virginia parcela k ( 36 ) | pesm - nucleo santa vurginia - parcela k ( 3 )","brazil_sao paulo_sao luiz paraitinga_pesm","",-23.32536341,-45.06803393
162,FALSE,NA,NA,"No: add","Yes","gbif_splink","162","Brazil","São Paulo","Ibiúna","bairro sorocabucu 8km da estrada sp 250 no km 63 ( 182 ) | bairro sorocabucu 8km da estrada cotia-ibiuna n0 km 63 ( 61 ) | bairro sorocabucu 8 km da estrada cotia-ibiuna no km 63 ( 56 ) | bairro sorocabucu ca 8 km da estrada sp-250 no km 63 ( 5 ) | bairro sorocabucu +- 8 km da estrada sp-250 no km 63 ( 1 ) | bairro sorocabucu +-8km da estrada sp-250 no km 63 ( 1 )","brazil_sao paulo_bairro sorocabucu","",-23.65610323,-47.22238822
162,FALSE,NA,NA,"No: add","Yes","gbif","162","Brazil","São Paulo","São Sebastião","sao sebastiao ( 126 ) | sao sebastiao sao paulo brazil ( 8 ) | sao sebastiao sp br ( 8 ) | sao sebastiao - sao paulo brasilien ( 7 ) | sao sebastiao serra do mar br-sp br ( 6 ) | sao sebastiao - sp brasil ( 5 )","brazil_sao paulo_sao sebastiao_sao sebastiao","",-23.82338534,-45.45606403
165,FALSE,NA,NA,"No: add","Yes","splink","165","Brazil","São Paulo","Itanhaém","km 325 rodovia pe manoel da nobrega","brazil_sao paulo_itanhaem_km 325 rodovia pe manoel nobrega","",-24.10589894,-46.47199912
165,TRUE,32679,"180","Yes: to do","","gbif_splink","180","Brazil","São Paulo","Itirapina","cerrado ( 150 ) | cerrado pedregulho ( 31 ) | cerrado grauna ( 15 ) | cerrado pedregulho beira do lago ( 3 ) | cerrado valerio ( 3 ) | cerrado coletada em bosque de peschiera fuchsiaefolia ( 2 )","brazil_sao paulo_itirapina_cerrado","",-22.2517488,-47.81826976
167,FALSE,NA,NA,"No: no need","","gbif_splink","167","Brazil","São Paulo","Cananéia","cananeia ilha do cardoso ( 54 ) | cananeia - sp 11990-000 brasil ( 50 ) | cananeia sp 11990-000 brasil ( 47 ) | cananeia ( 22 ) | cananeia ilba do cardoso ca 2 km s da sede da ilha do cardoso ( 12 ) | cananeia cananeia sp br ( 10 )","brazil_sao paulo_cananeia_cananeia","",-25.08842939,-47.95738093
167,FALSE,NA,NA,"No: add","Yes","gbif_splink","167","Brazil","São Paulo","Ibiúna ( 153 ) | Miracatu ( 40 ) | parque estadual de jurupara ( 5 )","parque estadual de jurupara fazenda tucano ( 51 ) | parque estadual de jurupara caminho para a fazenda tucano ( 12 ) | parque estadual de jurupara caminho da fazenda tucano ( 9 ) | parque estadual de jurupara caminho para a fazenda tucano na orla da mata ( 7 ) | parque estadual de jurupara estrada do mono caminho para o parque ( 7 ) | parque estadual de jurupara estrada da fazenda tucano ( 6 )","brazil_sao paulo_parque estadual jurupara","",-23.77729244,-47.26848767
168,FALSE,NA,NA,"No: no need","","gbif_splink","168","Brazil","São Paulo","Itirapina","itirapina ( 129 ) | itirapina; campo alegre ( 19 ) | itirapina br-sp br ( 18 ) | itirapina sp br ( 11 ) | itirapina cerrado do valerio ( 10 ) | itirapina cerrado ( 6 )","brazil_sao paulo_itirapina_itirapina","",-22.24831004,-47.83028557
168,FALSE,NA,NA,"No: add","Yes","splink","168","Brazil","São Paulo","Águas de Santa Bárbara","area de invasao proximo a um plantio de pinus estacao ecologica de santa b arbara","brazil_sao paulo_aguas santa barbara_estacao ecologica santa b arbara","",-22.79,-49.24
168,FALSE,NA,NA,"No: add","Yes","splink","168","Brazil","São Paulo","Águas de Santa Bárbara","area de invasao proximo a um plantio de pinus estacao ecologica de santa b arbara","brazil_sao paulo_area invasao proximo a um plantio pinus","",-22.79,-49.24
172,TRUE,34877,"110","Yes: to do","","gbif_jabot_reflora_splink","172","Brazil","São Paulo","Santo André ( 168 ) | paranapiacaba ( 144 ) | São Bernardo do Campo ( 13 ) | Bertioga ( 8 )","paranapiacaba estacao biologica ( 39 ) | paranapiacaba estacao biologica do alto da serra ( 30 ) | paranapiacaba estrada do taquarucu ( 27 ) | paranapiacaba trilha atras da guarita da estrada do taquarucu ( 23 ) | paranapiacaba santo andre - sp brasil ( 12 ) | paranapiacaba caminho da bela vista parque ecologico municipal das nascentes de paranapiacaba floresta ombrofila densa beira de estrada coletada no caminho para as 2 torres material para silica ( 8 )","brazil_sao paulo_paranapiacaba","",-23.7689366,-46.28504776
175,FALSE,NA,NA,"No: add","Yes","gbif_splink","175","Brazil","São Paulo","Ubatuba","planicie litoranea de picinguaba trilha da guarita ( 61 ) | planicie litoranea de picinguaba trilha das tres lagoas ( 40 ) | planicie litoranea de picinguaba br 101 km 9 ( 24 ) | planicie litoranea de picinguaba trilha casa da farinha ( 24 ) | planicie litoranea de picinguaba br 101 km 11 ( 20 ) | planicie litoranea de picinguaba trilha do noelo ( 19 )","brazil_sao paulo_ubatuba_planicie litoranea picinguaba","",-23.34948071,-44.82380228
175,FALSE,NA,NA,"No: add","Yes","gbif_splink","175","Brazil","São Paulo","Iguape","eecolchauas","brazil_sao paulo_iguape_estacao ecologicachauas","",-24.7034065,-47.56953038
177,FALSE,NA,NA,"No: add","Yes","gbif_splink","177","Brazil","São Paulo","Campinas","sousas mata ribeirao cachoeira ( 108 ) | sousas ( 49 ) | sousas mata ribeirao cachoeira floresta estacional semidecidual borda de mata ( 40 ) | sousas mata rieirao cachoeira ( 34 ) | sousas mata ribeirao cachoeira floresta estacional semidecidual interior de mata ( 21 ) | sousas mata ribeirao cachoeira floresta estacional semidecidual beira de riacho ( 20 )","brazil_sao paulo_campinas_sousas","",-22.84684896,-46.93368357
177,FALSE,NA,NA,"No: add","Yes","gbif_jabot_reflora_splink","177","Brazil","São Paulo","Bertioga","parque das neblinas ( 228 ) | parque das neblinas trilha da cachoeira ( 53 ) | parque das neblinas trilha do brejo ( 30 ) | parque das neblinas percurso: trilha das antas e volta por trilha inox trilha do brejo e trilha lava-pes ( 4 ) | parque das neblinas trilha das antas e volta por trilha inox trilha do brejo e trilha lava-pes ( 4 ) | parque das neblinas percurso trilha das ( 3 )","brazil_sao paulo_bertioga_parque neblinas","",-23.74834478,-46.15524942
179,FALSE,NA,NA,"No: add","Yes","splink","179","Brazil","São Paulo","Analândia","parque rauvitscher faz pedra vermelha","brazil_sao paulo_analandia_parque rauvitscher, fazenda pedra vermelha","",-22.120001,-47.66
179,FALSE,NA,NA,"No: add","Yes","splink","179","Brazil","São Paulo","Analândia","parque rauvitscher faz pedra vermelha","brazil_sao paulo_parque rauvitscher","",-22.120001,-47.66
186,FALSE,NA,NA,"No: add","Yes","gbif_splink","186","Brazil","São Paulo","Iguape","barra do ribeira ( 714 ) | barra da ribeira ( 4 ) | barra do ribeira barra do ribeira ( 1 ) | barra do ribeira restinga ( 1 )","brazil_sao paulo_iguape_barra ribeira","",-24.42597212,-47.33432577
194,TRUE,32609,"189","Yes: to do","","gbif_jabot_reflora_splink","194","Brazil","São Paulo","Pariquera-Açu","propriedade do sr flavio ( 426 ) | propriedade do senhor flavio ( 6 ) | propriedade do sr flavio relevo ondulado floresta ombrofila densa submontana ( 2 ) | propriedade do sr flavio relevo ondulado vegetacao dloresta ombrofila densa submontana ( 2 ) | propriedade do sr flavio relevo: suave-ondulado vegetacao: floresta ombrofila densa das terras baixas ( 2 )","brazil_sao paulo_pariquera acu_propriedade senhor flavio","",-24.80479101,-47.86052148
194,FALSE,NA,NA,"No: add","Yes","splink","194","Brazil","São Paulo","Peruíbe","estacao biologica de jureia","brazil_sao paulo_peruibe_estacao biologica jureia","",-24.19119806,-46.59539734
195,FALSE,NA,NA,"No: add","Yes","gbif_splink","195","Brazil","São Paulo","Salesópolis","estacao experimental de boraceia/estacao experimental de quina (atual estacao biologica de boraceia museu de zoologia/usp)","brazil_sao paulo_estacao experimental boraceia","",-23.653806,-45.889778
195,FALSE,NA,NA,"No: add","Yes","gbif_splink","195","Brazil","São Paulo","Salesópolis","estacao experimental de boraceia/estacao experimental de quina (atual estacao biologica de boraceia museu de zoologia/usp)","brazil_sao paulo_salesopolis_atual estacao biologica boraceia","",-23.653806,-45.889778
197,FALSE,NA,NA,"No: add","Yes","gbif_splink","197","Brazil","São Paulo","Mairiporã","pecantareira - regiao de aguas claras ( 140 ) | pecantareira barrocada ( 44 ) | pecantareira regiao de aguas claras ( 41 ) | pecantareira regiao do pinheirinho ( 25 ) | pecantareira nucleo aguas claras ( 13 ) | pecantareira aguas claras ( 5 )","brazil_sao paulo_mairipora_parque estadualcantareira","",-23.34635062,-46.59208554
199,FALSE,NA,NA,"No: add","Yes","gbif_splink","199","Brazil","São Paulo","Campos do Jordão","fazenda da guarda ( 188 ) | fazenda da guarda horto florestal ( 43 ) | fazenda da guarda vale do rio coxim areal ( 19 ) | campos do jordao fazenda da guarda horto florestal ( 12 ) | campos do jordao fazenda da guarda (horto florestal) ( 6 ) | fazenda guarda ( 4 )","brazil_sao paulo_campos jordao_fazenda guarda","",-22.74772654,-45.58997883
200,FALSE,NA,NA,"No: add","Yes","gbif_jabot_reflora_splink","200","Brazil","São Paulo","Campos do Jordão","horto florestal ( 197 ) | horto florestal mata de altitude ( 56 ) | horto florestal trilha do rio sapucai ( 54 ) | horto florestal (plantio de pinus) ( 16 ) | horto florestal mirante do pau arcado campo ( 12 ) | horto florestal borda de mata mata de altitude ( 10 )","brazil_sao paulo_campos jordao_horto florestal","",-22.71274625,-45.51959217
200,FALSE,NA,NA,"No: add","Yes","gbif_splink","200","Brazil","São Paulo","Campos do Jordão","sao jose dos alpes ( 178 ) | sao jose dos alpes tres pontas ( 6 ) | sao jose dos alpes talhao 12 borda da mata ( 5 ) | municipio de campos do jordao sao jose dos alpes ( 3 ) | sao jose dos alpes campo do moreira ( 3 ) | s jose dos alpes ( 2 )","brazil_sao paulo_campos jordao_sao jose alpes","",-22.72873884,-45.58164791
202,FALSE,NA,NA,"No: add","Yes","gbif_splink","202","Brazil","São Paulo","Eldorado","pejacupiranga - nucleo caverna do diabo","brazil_sao paulo_eldorado_parque estadualjacupiranga","",-24.62942272,-48.41201728
205,FALSE,NA,NA,"No: no need","","gbif_splink","205","Brazil","São Paulo","brasil","brasil estado de sao paulo campinas sub-distrito de souzas mata ribeirao cachoeira ( 105 ) | brasil sao paulo iguape barra do ribeira ( 36 ) | brasil sao paulo sao paulo instituto agronomico e geofisico ( 20 ) | brasil: estado de sao paulo campinas mata do macuco (fragmento g1); area total: 418ha ( 16 ) | brasil sao paulo sao paulo bairro da cachoeira ( 10 ) | brasil sao paulo sao paulo instituto de botanica ( 10 )","brazil_sao paulo_brasil_brasil","",-23.27810291,-46.75680464
209,FALSE,NA,NA,"No: no need","","gbif_splink","209","Brazil","São Paulo","Miracatu","miracatu - sp 11850-000 brasil ( 169 ) | miracatu sp 11850-000 brasil ( 16 ) | miracatu br-sp br ( 6 ) | miracatu - state of sao paulo 11850-000 brazil ( 5 ) | miracatu sp br ( 5 ) | miracatu sitio irapua km 3435 br-116 ( 4 )","brazil_sao paulo_miracatu_miracatu","",-24.16212992,-47.38679184
213,FALSE,NA,NA,"No: no need","","gbif_splink","213","Brazil","São Paulo","Ubatuba","ubatuba ( 128 ) | ubatuba serra do mar br-sp br ( 37 ) | ubatuba - sp 11680-000 brasil ( 18 ) | ubatuba sp br ( 17 ) | ubatuba - state of sao paulo 11680-000 brazil ( 15 ) | ubatuba picinguaba morro do corisco ( 11 )","brazil_sao paulo_ubatuba_ubatuba","",-23.39934981,-45.01248349
214,TRUE,21742,"check","Yes: check","","gbif_splink","check","Brazil","São Paulo","Guapiara ( 159 ) | Miracatu ( 143 ) | Iporanga ( 78 ) | serra paranapiacaba ( 29 ) | serra do paranapiacaba ( 20 ) | serra de paranapiacaba ( 9 )","serra paranapiacaba fazenda intervales rio do carmo along road to iporanga ( 82 ) | serra paranapiacaba fazenda intervales slopes of morro do mirante ( 52 ) | serra paranapiacaba fazenda intervales just w of ""sede de pesquisas"" ( 46 ) | serra paranapiacaba fazenda intervales ( 36 ) | serra paranapiacaba fazenda intervales summit of morro do mirante ( 20 ) | serra do paranapiacaba fazenda intervales sudlich capao bonito caminho dos lagos ( 16 )","brazil_sao paulo_serra paranapiacaba","",-24.19912918,-47.97316768
224,TRUE,32801,"167","Yes: to do","","gbif_jabot_reflora_splink","224","Brazil","São Paulo","Cananéia","ilha comprida estrada entre a balsa e a praia da ilha comprida ( 707 ) | ilha comprida estrada entre a balsa e a praia da ilha comprida area de mata de restinga com transicao para dunas ( 236 ) | estrada entre a balsa e a praia da ilha comprida ( 21 ) | ilha comprida estrada entre a balsa e a praia de ilha comprida ( 18 ) | ilha comprida estrada entre a balsa e a praia da ilha comprida 25*01'040""s 47*54'430""w area de mata de restinga com transicao para dunas ( 14 ) | ilha comprida estrada entre a balsa e a praia da ilha comprida area de mata de restinga com transicao para dunas 25°01'040""s 47°54'450""w ( 10 )","brazil_sao paulo_cananeia_estrada entre a balsa e a praia ilha comprida","",-25.0173101,-47.9157046
226,FALSE,NA,NA,"No: add","Yes","gbif_splink","226","Brazil","São Paulo","Monte Alegre do Sul","estacao experimental de ibiti","brazil_sao paulo_monte alegre sul_estacao experimental ibiti","",-22.68004247,-46.68001821
237,FALSE,NA,NA,"No: add","Yes","gbif_splink","237","Brazil","São Paulo","Iguape","eecoljureia-itatins serra da jureia ( 202 ) | eecoljureia-itatins ( 48 ) | eecoljureia-itatins macico da jureia ( 2 ) | eecoljureia itatins serra da jureia ( 1 ) | eecoljureia-itatins morro do grajauna ( 1 ) | eecoljureia-itatins serra da jureia mata proximo ao alojamento ( 1 )","brazil_sao paulo_iguape_estacao ecologicajureia itatins","",-24.67241623,-47.50693267
243,TRUE,33857,"103","Yes: to do","","gbif_reflora_splink","243","Brazil","São Paulo","Campos do Jordão","umuarama ( 208 ) | umuarama; apa mackenzie; campo de altitude ( 55 ) | umuarama (area da upm) ( 8 ) | umuarama rua benjamin hunicutt 3260 vertente proxima a entrada [portaria] da colonia altitude obtida a partir das coordenadas geograficas ( 8 ) | umuarama rua benjamin hunicutt 3260 vertente proxima a entrada [portaria] da colonia proximo ao laboratorio altitude obtida a partir das coordenadas geograficas ( 8 ) | umuarama rua benjamin hunicutt 3260 vertente proxima a entrada [portaria] da colonia codigo cj152 altitude obtida a partir de dados das coordenadas geograficas ( 4 )","brazil_sao paulo_campos jordao_umuarama","",-22.73533211,-45.58695371
254,FALSE,NA,NA,"No: add","Yes","gbif","254","Brazil","São Paulo","São Luís do Paraitinga","propriedade de joao","brazil_sao paulo_sao luiz paraitinga_propriedade joao","",-23.312488,-45.225883
256,TRUE,33102,"141","Yes: to do","","gbif_splink","256","Brazil","São Paulo","Mairiporã","serra da cantareira ( 123 ) | mato dentro (serra da cantareira) ( 95 ) | mato dentro (serra da cantareira) serra da cantareira ( 13 ) | serra da cantareira sausalito ( 10 ) | serra da cantareira hortolandia ( 6 ) | serra da cantareira haras el paso ( 4 )","brazil_sao paulo_mairipora_serra cantareira","",-23.31313556,-46.57805999
258,TRUE,32293,"244","Yes: to do","","gbif_reflora_splink","258","Brazil","São Paulo","Itirapina","estacao experimental de itirapina ( 278 ) | estacao experimental de itirapina - instituto florestal - cerrado ( 68 ) | estacao experimental de itirapina area do valerio ( 21 ) | estacao experimental de itirapina area do pedregulho ( 19 ) | estacao experimental de itirapina area do grauna ( 11 ) | estacao experimental de itirapina cerrado ( 10 )","brazil_sao paulo_itirapina_estacao experimental itirapina","",-22.23580614,-47.83952755
268,FALSE,NA,NA,"No: add","Yes","gbif_splink","268","Brazil","São Paulo","Campos do Jordão","pico do itapeva ( 221 ) | pico itapeva ( 44 ) | pico de itapeva ( 24 ) | pico de itapeva floresta de altitude ( 3 ) | pico da itapeva ( 2 ) | pico de itapeva area com campo montano e fragmentos de floresta de altitude ( 2 )","brazil_sao paulo_campos jordao_pico itapeva","",-22.73086027,-45.5883175
277,TRUE,32229,"265","Yes: to do","","gbif_jabot_reflora_splink","277","Brazil","São Paulo","Avaí","aldeia guarani ( 392 ) | aldeia guarani floresta estacional semidecidual submontana perturbada ( 32 ) | aldeia guarani folha cartografica sf-22-z-b coordenada coletada ( 10 ) | aldeia guarani&nf;floresta estacional semidecidual submontana perturbada ( 9 ) | aldeia guarani pastagem ( 6 ) | aldeia guarani floresta estacional semidecidual submontana pertubada ( 5 )","brazil_sao paulo_avai_aldeia guarani","",-22.18682088,-49.32739438
283,TRUE,21479,"check","Yes: check","","gbif_jabot_reflora_splink","check","Brazil","São Paulo","parelheiros ( 327 ) | São Paulo ( 231 ) | Capivari ( 8 )","camping ana paula ( 50 ) | centro paulus ( 18 ) | parelheiros sao paulo - sp 04874 brasil ( 12 ) | sitio a esquerda na estrada eng° marsilac sentido eng° marsilac ( 11 ) | sitio a esquerda na estrada engº marsilac sentido engº marsilac ( 11 ) | parelheiros capivari fazenda da sabesp ao final da estrada do capivara trilha a direita da casa da guarda ( 10 )","brazil_sao paulo_parelheiros","",-23.89977871,-46.72918884
284,TRUE,31612,"check","Yes: check","","gbif_splink","check","Brazil","São Paulo","Botucatu","18km north of botucatu (14km east of sao manuel) ( 346 ) | 18km north of botucatu (14km east of sao miguel) ( 58 ) | 18km north of botucatu (14km east of sao miguel) along the sao manuel piracicabana highway near ex rr station ( 52 ) | 18km north of botucatu ( 36 ) | 18km north of botucatu (14 km east of sao manuel) along the sao manuel-piracicaba highway near ex-rr station ( 22 ) | 18km north of botucatu (14km east of sao manuel) along the sao manuel-piracicaba highway near ex-rr station """"13 de maio ( 16 )","brazil_sao paulo_botucatu_18km north of botucatu","",-22.45,-48.25
288,TRUE,32727,"175","Yes: to do","","gbif_jabot_reflora_splink","288","Brazil","São Paulo","Cananéia","ilha comprida ( 420 ) | ilha comprida southern shore ( 48 ) | ilha comprida southern shore mun cananeia ( 48 ) | ilha comprida southern tip along bay channel ""barra de cananeia"" ( 33 ) | ilha comprida restinga ( 32 ) | ilha comprida southern tip along bay channel ""barra de cananeia"" mun cananeia ( 30 )","brazil_sao paulo_cananeia_ilha comprida","",-25.02818148,-47.91373102
289,TRUE,5783,"ok","Yes: ok","","gbif_jabot_reflora_splink","ok","Brazil","São Paulo","Cananéia ( 1203 ) | Iguape ( 2 )","ilha comprida estrada entre a balsa e a praia da ilha comprida ( 707 ) | ilha comprida estrada entre a balsa e a praia da ilha comprida area de mata de restinga com transicao para dunas ( 236 ) | ilha comprida na beira da estrada entre o ponto de chegada da balsa de cananeia e a praia ( 28 ) | ilha comprida estrada entre balsa e a praia da ilha comprida ( 21 ) | ilha comprida estrada entre a balsa e a praia de ilha comprida ( 18 ) | ilha comprida estrada entre a balsa e a prais da ilha comprida ( 18 )","brazil_sao paulo_ilha comprida","",-25.01619708,-47.91888339
291,FALSE,NA,NA,"No: add","Yes","gbif_splink","291","Brazil","São Paulo","Ibiúna","bairro sorocabucu ca 8 km da sp-250 na altura do km 63 a esquerda ( 466 ) | bairro sorocabucu 8km d sp 250 entando no km 63 ( 56 ) | bairro sorocabucu ca 8 km da sp-250 km 63 ( 6 ) | bairro sorocabucu sitio sky 8 km da rod sp-125 ( 6 ) | bairro sorocabucu sitio sky ca 12 km da cidade ( 4 ) | bairro sorocabucu ( 3 )","brazil_sao paulo_ibiuna_bairro sorocabucu","",-23.65609915,-47.22238661
294,FALSE,NA,NA,"No: add","Yes","gbif_splink","294","Brazil","São Paulo","jardim botanico","jardim botanico ( 284 ) | jardim botanico s paulo ( 36 ) | jardim botanico sao paulo ( 27 ) | jardim botanico spaulo ( 15 ) | jardim botanico capital ( 2 ) | jardim botanico instituto botanico capital ( 2 )","brazil_sao paulo_jardim botanico_jardim botanico","",-23.6458414,-46.61869223
294,TRUE,33370,"125","Yes: to do","","gbif_jabot_reflora_splink","294","Brazil","São Paulo","Campos do Jordão","morro do elefante ( 314 ) | morro do elefante regiao de campo ( 8 ) | morro do elefante logo abaixo de teleferico ( 3 ) | morro do elefante; logo abaixo do teleferico ( 3 ) | morro do elefante campo ( 2 ) | morro do elefante lado direito do teleferico ( 2 )","brazil_sao paulo_campos jordao_morro elefante","",-22.7273303,-45.58595366
299,FALSE,NA,NA,"No: add","Yes","gbif_jabot_splink","299","Brazil","São Paulo","Corumbataí","reserva de cerrado da unesp ( 833 ) | reserva de cerrado da unesp alt 793-866m ( 676 ) | reserva de cerrado da unesp 793-866 m ( 54 ) | reserva de cerrado da unesp trilha em fragmento de cerradao ( 4 )","brazil_sao paulo_corumbatai_reserva cerrado unesp","",-22.24165281,-47.68606882
302,TRUE,32530,"199","Yes: to do","","gbif_jabot_splink","302","Brazil","São Paulo","Monte Alegre do Sul","estacao experimental do iac ( 319 ) | estacao experimental do iac regiao montanhosa mata ( 27 ) | estacao experimental do iac regiao montanhosa ( 21 ) | estacao experimental iac ( 6 ) | estacao experimental do iac mata ( 3 ) | estacao experimental do iac -22696694 n; -46668667 l ( 2 )","brazil_sao paulo_monte alegre sul_estacao experimental iac","",-22.68139883,-46.68008664
303,TRUE,21323,"check","Yes: check","","gbif_splink","check","Brazil","São Paulo","jardim botanico","jardim botanico ( 284 ) | jardim botanico s paulo ( 36 ) | jardim botanico sao paulo ( 27 ) | jardim botanico spaulo ( 15 ) | trilha para nascente do rio ipiranga ( 10 ) | jardim botanico (parque do estado) ( 6 )","brazil_sao paulo_jardim botanico","",-23.65402414,-46.62667675
308,FALSE,NA,NA,"No: add","Yes","gbif_splink","308","Brazil","São Paulo","Guarujá","forte dos andradas ( 253 ) | forte dos andradas trilha que leva a praia de fora (obuseiro) ( 34 ) | forte dos andradas trilha que leva a praia de fora ( 32 ) | forte dos andradas trilha do obuseiro ( 28 ) | forte dos andradas praia do bueno (praia da bateria) ( 7 ) | forte dos andradas alameda brigadeiro starling comandante comdabra ( 6 )","brazil_sao paulo_guaruja_forte andradas","",-23.99022414,-46.25011135
316,TRUE,33495,"119","Yes: to do","","gbif_jabot_reflora_splink","316","Brazil","São Paulo","Atibaia","pedra grande ( 367 ) | pedra grande folha cartografica sf-23-y-c coordenada calculada ( 3 ) | pedra grandecoordenada calculada ( 3 ) | pedra grande ao lado da bica d#?# agua na metade do caminho ate o topo da montanha ( 2 ) | pedra grande cultivada no jardim botanico de sao paulo ( 2 ) | pedra grande em borda de mata rala perturbada bracteas arroxeadas e anteras amareladas 3-4m de altura ( 2 )","brazil_sao paulo_atibaia_pedra grande","",-23.10982702,-46.54674033
341,TRUE,21250,"ok","Yes: ok","","gbif_jabot_splink","ok","Brazil","São Paulo","Cananéia","ilha do cardoso estrada da captacao ( 52 ) | ilha do cardoso estrada para a turbina ( 37 ) | ilha do cardoso estrada para o morro da captacao ( 32 ) | ilha do cardoso estrada para captacao ( 16 ) | ilha do cardoso estrada para a barragem ( 14 ) | ilha do cardoso reserva biologica rio sitio grande ( 14 )","brazil_sao paulo_ilha cardoso","",-25.028949,-47.92893246
354,FALSE,NA,NA,"No: no need","","gbif_splink","354","Brazil","São Paulo","brasil ( 348 ) | Cananéia ( 17 ) | Ubatuba ( 9 ) | Campos do Jordão ( 7 ) | Itirapina ( 6 ) | Jundiaí ( 6 )","brasil estado de sao paulo campinas sub-distrito de souzas mata ribeirao cachoeira ( 105 ) | brasil sao paulo iguape barra do ribeira ( 36 ) | brasil sao paulo sao paulo instituto agronomico e geofisico ( 20 ) | brasil: estado de sao paulo campinas mata do macuco (fragmento g1); area total: 418ha ( 16 ) | brasil sao paulo sao paulo bairro da cachoeira ( 10 ) | brasil sao paulo sao paulo instituto de botanica ( 10 )","brazil_sao paulo_brasil","",-23.39870927,-46.75843277
362,FALSE,NA,NA,"No: add","Yes","gbif_jabot_reflora_splink","362","Brazil","São Paulo","Miracatu","serra do cafezal area da futura duplicacao da br-116  floresta ombrofila densa projeto ""levantamento floristico fitossociologico e inventario florestal - obras de duplicacao da br-116 (km 344-363)#?# ( 186 ) | serra do cafezal area da futura duplicacao da br-116 (km 352) floresta ombrofila densa projeto ""levantamento floristico fitossociologico e inventario florestal - obras de duplicacao da br-116 (km 344-363)#?# ( 174 ) | serra do cafezal area da futura duplicacao da br-116 (km 352) floresta ombrofila densa projeto ""levantamento floristico fitossociologico e inventario florestal - obras de duplicacao da br-116 (km 344-363)” ( 73 ) | serra do cafezal area da futura duplicacao da br-116 (km 352) floresta ombrofila densa projeto """"levantamento floristico fitossociologico e inventario florestal - obras de duplicacao da br-116 (km 344-363)” ( 70 ) | serra do cafezal area da futura duplicacao da br-116 (km 352) levantamento floristico fitossociologico e inventario florestal - obras de duplicacao da br-116 (km 344-363) ( 2 ) | serra do cafezal area da futura duplicacao da br-116 (km 352) floresta ombrofila densa projeto ""levantamento floristico fitossociologico e inventario florestal - obras de duplicacao da br-116 (km 344-363)"" ( 1 )","brazil_sao paulo_miracatu_serra cafezal","",-24.21741236,-47.3959665
371,TRUE,33684,"110","Yes: to do","","gbif_splink","371","Brazil","São Paulo","Campos do Jordão","parque estadual do instituto florestal ( 325 ) | pe instituto florestal ( 8 ) | parque estadual instituto florestal ( 7 ) | parque estadual do instituto florestal trilha do rio sapucai ( 3 ) | parque estadual do instituto florestal trilha do rio sapucai proximo ao mirante ( 3 ) | parque estadual do instituto florestal inicio da trilha da cochoeira ( 2 )","brazil_sao paulo_campos jordao_parque estadual instituto florestal","",-22.73022423,-45.59002843
374,FALSE,NA,NA,"No: no need","","gbif_reflora","374","Brazil","São Paulo|","São Paulo ( 565 ) | pindamonhangaba ( 18 ) | botucatu ( 2 ) | de cauaucia ( 2 ) | iporanga ( 2 ) | cananeia ( 1 )","sao paulo ( 121 ) | sao paulo campos de jordao ( 30 ) | sao paulo: mun pindamonhangaba serra da mantiqueira pico do itapeva ca 6 km se of campos do jordao ( 15 ) | sao paulo - c mota ( 14 ) | sao paulo - pederneiras ( 12 ) | sao paulo - dois corregos ( 10 )","brazil_NA_NA_sao paulo","",-23.28832395,-46.38665691
379,TRUE,31716,"check","Yes: check","","gbif_splink","check","Brazil","São Paulo","Ibiúna","proximo ao distrito de caucaia do alto (cotia - sp) fragmento mioko ( 67 ) | proximo ao distrito de caucaia do alto (cotia - sp) fragmento beto borracheiro ( 66 ) | proximo ao distrito de caucaia do alto (cotia - sp) fragmento pedro ( 45 ) | proximo ao distrito de caucaia do alto (cotia - sp) fragmento pedroso ( 41 ) | proximo ao distrito de caucaia do alto (cotia - sp) fragmento reizinho ( 34 ) | proximo ao distrito de caucaia do alto (cotia - sp) fragmento lila ( 29 )","brazil_sao paulo_ibiuna_proximo ao distrito caucaia alto","",-23.72224722,-47.08092039
379,TRUE,32384,"224","Yes: to do","","gbif_splink","379","Brazil","São Paulo","Amparo","monte alegre ( 209 ) | monte alegre estacao experimental ( 56 ) | monte alegre margem do rio camanducaia ( 29 ) | monte alegre alto do morro da capela serra negra ( 9 ) | monte alegre encostas do pico da serra negra ( 8 ) | monte alegre margem do rio pinhal ( 7 )","brazil_sao paulo_amparo_monte alegre","brazil_sao paulo_monte alegre sul",-22.70014627,-46.75916863
451,FALSE,NA,NA,"No: add","Yes","gbif_splink","451","Brazil","São Paulo","Analândia","serra do cuscuzeiro ( 973 ) | serra do cuscuzeiro morro do camelo ( 18 ) | serra do cuscuzeiro serrote nova america ( 12 ) | serra do cuscuzeiro sitio agua limpa ( 12 ) | serra do cuscuzeiro gruta n s de lourdes ( 10 ) | serra do cuscuzeiro proximo ao morro do cuscuzeiro ( 10 )","brazil_sao paulo_analandia_serra cuscuzeiro","",-22.12442833,-47.66332415
476,FALSE,NA,NA,"No: add","Yes","gbif_jabot_reflora_splink","476","Brazil","São Paulo","Nazaré Paulista","estrada em torno da represa atibainha ( 862 ) | estrada em torno da represa atibainha mata mesofila semidecidua ( 554 ) | estrada em torno da represa atibainha 23*08'334""s 46*21'284""w 800 msm mata mesofila semidecidua ( 62 ) | estrada em torno da represa atibainha mata mesofila semidescidua ( 40 ) | estrada em torno da represa atibainha beira de mata ( 20 ) | estrada em torno da represa atibainha 23*08'33 4""s 46*21'28 4""w 800 msm mata mesofila semidecidua ( 18 )","brazil_sao paulo_nazare paulista_estrada em torno represa atibainha","brazil_sao paulo_nazare paulista_represa atibainha",-23.14999595,-46.36404674
489,FALSE,NA,NA,"No: add","Yes","gbif_splink","489","Brazil","São Paulo","Campos do Jordão","campos do jordao ( 301 ) | campos de jordao ( 291 ) | campos do jordao centro cultural ( 47 ) | campos do jordao - state of sao paulo 12460-000 brazil ( 43 ) | campos do jordao - sp 12460-000 brasil ( 41 ) | campos do jordao umuarama ( 26 )","brazil_sao paulo_campos jordao_campos jordao","",-22.70534446,-45.5440259
517,FALSE,NA,NA,"No: no need","","gbif_splink","517","Brazil","São Paulo","parque do estado ( 554 ) | parque de estado ( 4 ) | parque estado ( 1 )","parque do estado sao paulo - sp brasil ( 270 ) | parque do estado ( 114 ) | parque do estado sao paulo - sp 04301-902 brasil ( 41 ) | parque do estado sao paulo - state of sao paulo brazil ( 30 ) | parque do estado sao paulo ( 22 ) | parque do estado s paulo ( 18 )","brazil_sao paulo_parque estado_parque estado","",-23.64601309,-46.62229216
525,FALSE,NA,NA,"No: add","Yes","gbif_reflora_splink","525","Brazil","São Paulo","parque do estado ( 578 ) | parque de estado ( 4 ) | parque estado ( 1 )","parque do estado sao paulo - sp brasil ( 270 ) | parque do estado ( 114 ) | parque do estado sao paulo - sp 04301-902 brasil ( 41 ) | parque do estado sao paulo - state of sao paulo brazil ( 30 ) | parque do estado sao paulo ( 22 ) | parque do estado s paulo ( 18 )","brazil_sao paulo_parque estado","",-23.6374103,-46.62086656
592,FALSE,NA,NA,"No: add","Yes","gbif_jabot_reflora_splink","592","Brazil","São Paulo","São Paulo","parque estadual da serra do mar nucleo curucutu trilha do campo ( 204 ) | parque estadual da serra do mar nucleo curucutu ( 90 ) | parque estadual da serra do mar nucleo curucutu trilha do rio branco ( 86 ) | peserra do mar nucleo curucutu ( 82 ) | parque estadual da serra do mar nucleo curucutu trilha do campo 23o59's 46o44'w ca 800 msm floresta ribeirinha altomontana com campo adjacente ( 81 ) | parque estadual da serra do mar nucleo curucutu trilha do rio branco 23o59's 46o42'w ca 700-800msm floresta altomontana sobre o divisor de agua transicao floresta altomontana-floresta de encosta com campos adjacentes ( 55 )","brazil_sao paulo_sao paulo_parque estadual serra mar nucleo curucutu","",-23.9828455,-46.73009701
619,TRUE,6122,"ok","Yes: ok","","gbif_jabot_reflora_splink","ok","Brazil","São Paulo","São Luís do Paraitinga ( 964 ) | São Paulo ( 2 )","propriedade de joao ( 254 ) | pesm - nucleo santa virginia - parcela k floresta ombrofila densa montana ( 173 ) | pesm - nucleo santa virginia - parcela k ( 83 ) | nucleo santa virginia ( 63 ) | pesm- nucleo santa virginia - parcela k ( 40 ) | nucleo santa virginia nucleo santa virginia &nf;parcela k ( 38 )","brazil_sao paulo_sao luiz paraitinga","",-23.32640154,-45.13885419
726,FALSE,NA,NA,"No: no need","","gbif_reflora_splink","726","Brazil","São Paulo","São Paulo","sao paulo br ( 191 ) | sao paulo nativa no jardim botanico ( 153 ) | sao paulo ( 125 ) | sao paulo jardim botanico ( 31 ) | sao paulo campos de jordao ( 30 ) | sao paulo agua funda nativa no jardim botanico ( 29 )","brazil_sao paulo_sao paulo_sao paulo","",-23.44418892,-46.44894146
849,TRUE,31814,"1897","Yes:  to do","","gbif_splink","849","Brazil","São Paulo","Monte Alegre do Sul","iac estacao experimental area nativa ( 772 ) | iac estacao experimental area antropizada colecao ( 658 ) | iac estacao experimental ( 388 ) | iac estacao experimental bag de maracujazeiros ( 22 ) | iac estacao experimental regiao montanhosa ( 7 ) | iac estacao experimenta area nativa no morro do bugio ( 4 )","brazil_sao paulo_monte alegre sul_iac","",-22.68818083,-46.67508411
1157,TRUE,32277,"248","Yes: to do","","gbif_jabot_reflora_splink","248","Brazil","São Paulo","Iguape","estacao ecologica jureia - itatins ( 1035 ) | estacao ecologica de jureia ( 107 ) | estacao ecologica da jureia ( 57 ) | estacao ecologica jureia ( 12 ) | estacao ecologica da jureia (sema) ( 8 ) | iguape estacao ecologica da jureia ( 8 )","brazil_sao paulo_iguape_estacao ecologica jureia","",-24.67881004,-47.51640372
NA,NA,NA,NA,NA,NA,NA,NA,NA,NA,NA,NA,NA,NA,NA,NA
