"country","stateProvince","municipality","country.new","stateProvince.new","municipality.new","resol.orig","loc","loc.correct","latitude.gazetteer","longitude.gazetteer","resolution.gazetteer"
"Brazil","Rondônia","Alta Floresta D'oeste","brazil","rondonia","alta floresta d'oeste","municipality","brazil_NA_alta floresta oeste","brazil_rondonia_alta floresta oeste",-12.47107,-62.13705,"county"
"Brazil","Rondônia","Ariquemes","brazil","rondonia","ariquemes","municipality","brazil_NA_ariquemes","brazil_rondonia_ariquemes",-9.951979579,-62.95733633,"county"
"Brazil","Rondônia","Cabixi","brazil","rondonia","cabixi","municipality","brazil_NA_cabixi","brazil_rondonia_cabixi",-13.47485438,-60.63966155,"county"
"Brazil","Rondônia","Cacoal","brazil","rondonia","cacoal","municipality","brazil_NA_cacoal","brazil_rondonia_cacoal",-11.30123991,-61.32464695,"county"
"Brazil","Rondônia","Cerejeiras","brazil","rondonia","cerejeiras","municipality","brazil_NA_cerejeiras","brazil_rondonia_cerejeiras",-13.20362461,-61.26060427,"county"
"Brazil","Rondônia","Colorado do Oeste","brazil","rondonia","colorado do oeste","municipality","brazil_NA_colorado oeste","brazil_rondonia_colorado oeste",-13.15916895,-60.55010034,"county"
"Brazil","Rondônia","Corumbiara","brazil","rondonia","corumbiara","municipality","brazil_NA_corumbiara","brazil_rondonia_corumbiara",-12.92659436,-61.09178785,"county"
"Brazil","Rondônia","Costa Marques","brazil","rondonia","costa marques","municipality","brazil_NA_costa marques","brazil_rondonia_costa marques",-12.36932287,-63.38197138,"county"
"Brazil","Rondônia","Espigão D'oeste","brazil","rondonia","espigao d'oeste","municipality","brazil_NA_espigao oeste","brazil_rondonia_espigao oeste",-11.35129629,-60.78470467,"county"
"Brazil","Rondônia","Guajará-Mirim","brazil","rondonia","guajara-mirim","municipality","brazil_NA_guajara mirim","brazil_rondonia_guajara mirim",-11.3046128,-64.53418561,"county"
"Brazil","Rondônia","Jaru","brazil","rondonia","jaru","municipality","brazil_NA_jaru","brazil_rondonia_jaru",-10.59250458,-62.58478876,"county"
"Brazil","Rondônia","Ji-Paraná","brazil","rondonia","ji-parana","municipality","brazil_NA_ji parana","brazil_rondonia_ji parana",-10.46216151,-61.75712508,"county"
"Brazil","Rondônia","Machadinho D'oeste","brazil","rondonia","machadinho d'oeste","municipality","brazil_NA_machadinho oeste","brazil_rondonia_machadinho oeste",-9.204091501,-62.01037965,"county"
"Brazil","Rondônia","Nova Brasilândia D'oeste","brazil","rondonia","nova brasilandia d'oeste","municipality","brazil_NA_nova brasilandia oeste","brazil_rondonia_nova brasilandia oeste",-11.56431137,-62.23305229,"county"
"Brazil","Rondônia","Ouro Preto do Oeste","brazil","rondonia","ouro preto do oeste","municipality","brazil_NA_ouro preto oeste","brazil_rondonia_ouro preto oeste",-10.36659,-61.92239,"county"
"Brazil","Rondônia","Pimenta Bueno","brazil","rondonia","pimenta bueno","municipality","brazil_NA_pimenta bueno","brazil_rondonia_pimenta bueno",-11.89451773,-60.83034398,"county"
"Brazil","Rondônia","Porto Velho","brazil","rondonia","porto velho","municipality","brazil_NA_porto velho","brazil_rondonia_porto velho",-9.153370806,-64.30648105,"county"
"Brazil","Rondônia","Presidente Médici","brazil","rondonia","presidente medici","municipality","brazil_NA_presidente medici","brazil_rondonia_presidente medici",-11.16614922,-61.87786126,"county"
"Brazil","Rondônia","Rio Crespo","brazil","rondonia","rio crespo","municipality","brazil_NA_rio crespo","brazil_rondonia_rio crespo",-9.645091703,-62.79034604,"county"
"Brazil","Rondônia","Rolim de Moura","brazil","rondonia","rolim de moura","municipality","brazil_NA_rolim moura","brazil_rondonia_rolim moura",-11.73251408,-61.77145289,"county"
"Brazil","Rondônia","Santa Luzia D'oeste","brazil","rondonia","santa luzia d'oeste","municipality","brazil_NA_santa luzia oeste","brazil_rondonia_santa luzia oeste",-12.02708161,-61.70086368,"county"
"Brazil","Rondônia","Vilhena","brazil","rondonia","vilhena","municipality","brazil_NA_vilhena","brazil_rondonia_vilhena",-12.08801347,-60.25247464,"county"
"Brazil","Rondônia","São Miguel do Guaporé","brazil","rondonia","sao miguel do guapore","municipality","brazil_NA_sao miguel guapore","brazil_rondonia_sao miguel guapore",-11.88417286,-63.1211642,"county"
"Brazil","Rondônia","Nova Mamoré","brazil","rondonia","nova mamore","municipality","brazil_NA_nova mamore","brazil_rondonia_nova mamore",-10.38275752,-64.62673959,"county"
"Brazil","Rondônia","Alvorada D'oeste","brazil","rondonia","alvorada d'oeste","municipality","brazil_NA_alvorada oeste","brazil_rondonia_alvorada oeste",-11.31144834,-62.54484927,"county"
"Brazil","Rondônia","Alto Alegre dos Parecis","brazil","rondonia","alto alegre dos parecis","municipality","brazil_NA_alto alegre parecis","brazil_rondonia_alto alegre parecis",-12.59490439,-61.88181365,"county"
"Brazil","Rondônia","Alto Paraíso","brazil","rondonia","alto paraiso","municipality","brazil_NA_alto paraiso","brazil_rondonia_alto paraiso",-9.649292764,-63.39435869,"county"
"Brazil","Rondônia","Buritis","brazil","rondonia","buritis","municipality","brazil_NA_buritis","brazil_rondonia_buritis",-10.05213452,-63.94121321,"county"
"Brazil","Rondônia","Novo Horizonte do Oeste","brazil","rondonia","novo horizonte do oeste","municipality","brazil_NA_novo horizonte oeste","brazil_rondonia_novo horizonte oeste",-11.68102627,-62.08320616,"county"
"Brazil","Rondônia","Cacaulândia","brazil","rondonia","cacaulandia","municipality","brazil_NA_cacaulandia","brazil_rondonia_cacaulandia",-10.33164673,-62.98697672,"county"
"Brazil","Rondônia","Campo Novo de Rondônia","brazil","rondonia","campo novo de rondonia","municipality","brazil_NA_campo novo rondonia","brazil_rondonia_campo novo rondonia",-10.48507044,-63.79949452,"county"
"Brazil","Rondônia","Candeias do Jamari","brazil","rondonia","candeias do jamari","municipality","brazil_NA_candeias jamari","brazil_rondonia_candeias jamari",-8.886975255,-63.32561069,"county"
"Brazil","Rondônia","Castanheiras","brazil","rondonia","castanheiras","municipality","brazil_NA_castanheiras","brazil_rondonia_castanheiras",-11.47085776,-61.8799061,"county"
"Brazil","Rondônia","Chupinguaia","brazil","rondonia","chupinguaia","municipality","brazil_NA_chupinguaia","brazil_rondonia_chupinguaia",-12.53735662,-60.89834214,"county"
"Brazil","Rondônia","Cujubim","brazil","rondonia","cujubim","municipality","brazil_NA_cujubim","brazil_rondonia_cujubim",-9.170952698,-62.56508821,"county"
"Brazil","Rondônia","Governador Jorge Teixeira","brazil","rondonia","governador jorge teixeira","municipality","brazil_NA_governador jorge teixeira","brazil_rondonia_governador jorge teixeira",-10.74802496,-63.1839641,"county"
"Brazil","Rondônia","Itapuã do Oeste","brazil","rondonia","itapua do oeste","municipality","brazil_NA_itapua oeste","brazil_rondonia_itapua oeste",-9.170171001,-63.04502402,"county"
"Brazil","Rondônia","Ministro Andreazza","brazil","rondonia","ministro andreazza","municipality","brazil_NA_ministro andreazza","brazil_rondonia_ministro andreazza",-11.16032314,-61.5688988,"county"
"Brazil","Rondônia","Mirante da Serra","brazil","rondonia","mirante da serra","municipality","brazil_NA_mirante serra","brazil_rondonia_mirante serra",-11.0769422,-62.84825931,"county"
"Brazil","Rondônia","Monte Negro","brazil","rondonia","monte negro","municipality","brazil_NA_monte negro","brazil_rondonia_monte negro",-10.21077664,-63.37229149,"county"
"Brazil","Rondônia","Nova União","brazil","rondonia","nova uniao","municipality","brazil_NA_nova uniao","brazil_rondonia_nova uniao",-10.88943073,-62.53251744,"county"
"Brazil","Rondônia","Parecis","brazil","rondonia","parecis","municipality","brazil_NA_parecis","brazil_rondonia_parecis",-12.26231878,-61.41514886,"county"
"Brazil","Rondônia","Pimenteiras do Oeste","brazil","rondonia","pimenteiras do oeste","municipality","brazil_NA_pimenteiras oeste","brazil_rondonia_pimenteiras oeste",-13.01273,-61.73762,"county"
"Brazil","Rondônia","Primavera de Rondônia","brazil","rondonia","primavera de rondonia","municipality","brazil_NA_primavera rondonia","brazil_rondonia_primavera rondonia",-11.87854268,-61.31522417,"county"
"Brazil","Rondônia","São Felipe D'oeste","brazil","rondonia","sao felipe d'oeste","municipality","brazil_NA_sao felipe oeste","brazil_rondonia_sao felipe oeste",-11.76694539,-62.44237399,"county"
"Brazil","Rondônia","São Francisco do Guaporé","brazil","rondonia","sao francisco do guapore","municipality","brazil_NA_sao francisco guapore","brazil_rondonia_sao francisco guapore",-12.47295039,-62.27663443,"county"
"Brazil","Rondônia","Seringueiras","brazil","rondonia","seringueiras","municipality","brazil_NA_seringueiras","brazil_rondonia_seringueiras",-11.88417286,-63.1211642,"county"
"Brazil","Rondônia","Teixeirópolis","brazil","rondonia","teixeiropolis","municipality","brazil_NA_teixeiropolis","brazil_rondonia_teixeiropolis",-10.94350037,-62.2799137,"county"
"Brazil","Rondônia","Theobroma","brazil","rondonia","theobroma","municipality","brazil_NA_theobroma","brazil_rondonia_theobroma",-10.12176396,-62.34235543,"county"
"Brazil","Rondônia","Urupá","brazil","rondonia","urupa","municipality","brazil_NA_urupa","brazil_rondonia_urupa",-11.10392945,-62.4239815,"county"
"Brazil","Rondônia","Vale do Anari","brazil","rondonia","vale do anari","municipality","brazil_NA_vale anari","brazil_rondonia_vale anari",-9.732576757,-61.93927629,"county"
"Brazil","Rondônia","Vale do Paraíso","brazil","rondonia","vale do paraiso","municipality","brazil_NA_vale paraiso","brazil_rondonia_vale paraiso",-10.61034263,-62.17235881,"county"
"Brazil","Acre","Acrelândia","brazil","acre","acrelandia","municipality","brazil_NA_acrelandia","brazil_acre_acrelandia",-9.928786085,-66.93057363,"county"
"Brazil","Acre","Assis Brasil","brazil","acre","assis brasil","municipality","brazil_NA_assis brasil","brazil_acre_assis brasil",-10.87442377,-70.16259514,"county"
"Brazil","Acre","Brasiléia","brazil","acre","brasileia","municipality","brazil_NA_brasileia","brazil_acre_brasileia",-10.76825376,-69.15011225,"county"
"Brazil","Acre","Bujari","brazil","acre","bujari","municipality","brazil_NA_bujari","brazil_acre_bujari",-9.586090579,-68.20649291,"county"
"Brazil","Acre","Capixaba","brazil","acre","capixaba","municipality","brazil_NA_capixaba","brazil_acre_capixaba",-10.47664105,-67.83720572,"county"
"Brazil","Acre","Cruzeiro do Sul","brazil","acre","cruzeiro do sul","municipality","brazil_NA_cruzeiro sul","brazil_acre_cruzeiro sul",-8.065150237,-72.86715993,"county"
"Brazil","Acre","Epitaciolândia","brazil","acre","epitaciolandia","municipality","brazil_NA_epitaciolandia","brazil_acre_epitaciolandia",-10.89937087,-68.41142128,"county"
"Brazil","Acre","Feijó","brazil","acre","feijo","municipality","brazil_NA_feijo","brazil_acre_feijo",-9.072905604,-70.89498145,"county"
"Brazil","Acre","Jordão","brazil","acre","jordao","municipality","brazil_NA_jordao","brazil_acre_jordao",-9.242727783,-71.91831297,"county"
"Brazil","Acre","Mâncio Lima","brazil","acre","mancio lima","municipality","brazil_NA_mancio lima","brazil_acre_mancio lima",-7.505874057,-73.46213842,"county"
"Brazil","Acre","Manoel Urbano","brazil","acre","manoel urbano","municipality","brazil_NA_manoel urbano","brazil_acre_manoel urbano",-9.467183573,-69.91874731,"county"
"Brazil","Acre","Marechal Thaumaturgo","brazil","acre","marechal thaumaturgo","municipality","brazil_NA_marechal thaumaturgo","brazil_acre_marechal thaumaturgo",-9.107902956,-72.5484941,"county"
"Brazil","Acre","Plácido de Castro","brazil","acre","placido de castro","municipality","brazil_NA_placido castro","brazil_acre_placido castro",-10.24724489,-67.31728957,"county"
"Brazil","Acre","Porto Walter","brazil","acre","porto walter","municipality","brazil_NA_porto walter","brazil_acre_porto walter",-8.516460948,-72.71462652,"county"
"Brazil","Acre","Rio Branco","brazil","acre","rio branco","municipality","brazil_NA_rio branco","brazil_acre_rio branco",-10.05302263,-68.31503586,"county"
"Brazil","Acre","Rodrigues Alves","brazil","acre","rodrigues alves","municipality","brazil_NA_rodrigues alves","brazil_acre_rodrigues alves",-7.82281308,-73.24339787,"county"
"Brazil","Acre","Santa Rosa do Purus","brazil","acre","santa rosa do purus","municipality","brazil_NA_santa rosa purus","brazil_acre_santa rosa purus",-9.422991694,-70.4074451,"county"
"Brazil","Acre","Senador Guiomard","brazil","acre","senador guiomard","municipality","brazil_NA_senador guiomard","brazil_acre_senador guiomard",-10.01111904,-67.40747587,"county"
"Brazil","Acre","Sena Madureira","brazil","acre","sena madureira","municipality","brazil_NA_sena madureira","brazil_acre_sena madureira",-9.854576543,-69.43882628,"county"
"Brazil","Acre","Tarauacá","brazil","acre","tarauaca","municipality","brazil_NA_tarauaca","brazil_acre_tarauaca",-8.314280424,-71.54348817,"county"
"Brazil","Acre","Xapuri","brazil","acre","xapuri","municipality","brazil_NA_xapuri","brazil_acre_xapuri",-10.54281834,-68.5729894,"county"
"Brazil","Acre","Porto Acre","brazil","acre","porto acre","municipality","brazil_NA_porto acre","brazil_acre_porto acre",-9.620392259,-67.70052831,"county"
"Brazil","Amazonas","Alvarães","brazil","amazonas","alvaraes","municipality","brazil_NA_alvaraes","brazil_amazonas_alvaraes",-3.701128363,-65.33080397,"county"
"Brazil","Amazonas","Amaturá","brazil","amazonas","amatura","municipality","brazil_NA_amatura","brazil_amazonas_amatura",-3.418368581,-68.28779424,"county"
"Brazil","Amazonas","Anamã","brazil","amazonas","anama","municipality","brazil_NA_anama","brazil_amazonas_anama",-3.502606263,-61.71674185,"county"
"Brazil","Amazonas","Anori","brazil","amazonas","anori","municipality","brazil_NA_anori","brazil_amazonas_anori",-4.186667406,-62.07309407,"county"
"Brazil","Amazonas","Apuí","brazil","amazonas","apui","municipality","brazil_NA_apui","brazil_amazonas_apui",-7.75972024,-59.43139823,"county"
"Brazil","Amazonas","Atalaia do Norte","brazil","amazonas","atalaia do norte","municipality","brazil_NA_atalaia norte","brazil_amazonas_atalaia norte",-5.710436838,-71.74248909,"county"
"Brazil","Amazonas","Autazes","brazil","amazonas","autazes","municipality","brazil_NA_autazes","brazil_amazonas_autazes",-3.788981689,-59.52880292,"county"
"Brazil","Amazonas","Barcelos","brazil","amazonas","barcelos","municipality","brazil_NA_barcelos","brazil_amazonas_barcelos",-0.465216609,-63.43469746,"county"
"Brazil","Amazonas","Barreirinha","brazil","amazonas","barreirinha","municipality","brazil_NA_barreirinha","brazil_amazonas_barreirinha",-3.129109554,-57.17243568,"county"
"Brazil","Amazonas","Benjamin Constant","brazil","amazonas","benjamin constant","municipality","brazil_NA_benjamin constant","brazil_amazonas_benjamin constant",-5.431016683,-70.27981915,"county"
"Brazil","Amazonas","Beruri","brazil","amazonas","beruri","municipality","brazil_NA_beruri","brazil_amazonas_beruri",-4.603478122,-61.78745129,"county"
"Brazil","Amazonas","Boa Vista do Ramos","brazil","amazonas","boa vista do ramos","municipality","brazil_NA_boa vista ramos","brazil_amazonas_boa vista ramos",-2.986854,-57.563472,"county"
"Brazil","Amazonas","Boca do Acre","brazil","amazonas","boca do acre","municipality","brazil_NA_boca acre","brazil_amazonas_boca acre",-8.760441724,-68.08975685,"county"
"Brazil","Amazonas","Borba","brazil","amazonas","borba","municipality","brazil_NA_borba","brazil_amazonas_borba",-4.956915355,-59.53441571,"county"
"Brazil","Amazonas","Caapiranga","brazil","amazonas","caapiranga","municipality","brazil_NA_caapiranga","brazil_amazonas_caapiranga",-3.081994093,-61.87758613,"county"
"Brazil","Amazonas","Canutama","brazil","amazonas","canutama","municipality","brazil_NA_canutama","brazil_amazonas_canutama",-7.40327598,-64.09662553,"county"
"Brazil","Amazonas","Carauari","brazil","amazonas","carauari","municipality","brazil_NA_carauari","brazil_amazonas_carauari",-5.118801269,-67.33761862,"county"
"Brazil","Amazonas","Careiro","brazil","amazonas","careiro","municipality","brazil_NA_careiro","brazil_amazonas_careiro",-3.77063578,-60.18309342,"county"
"Brazil","Amazonas","Careiro da Várzea","brazil","amazonas","careiro da varzea","municipality","brazil_NA_careiro varzea","brazil_amazonas_careiro varzea",-3.286234159,-59.59952002,"county"
"Brazil","Amazonas","Coari","brazil","amazonas","coari","municipality","brazil_NA_coari","brazil_amazonas_coari",-4.437225836,-64.12471085,"county"
"Brazil","Amazonas","Codajás","brazil","amazonas","codajas","municipality","brazil_NA_codajas","brazil_amazonas_codajas",-3.28904067,-62.97277007,"county"
"Brazil","Amazonas","Eirunepé","brazil","amazonas","eirunepe","municipality","brazil_NA_eirunepe","brazil_amazonas_eirunepe",-7.063653186,-70.2792599,"county"
"Brazil","Amazonas","Envira","brazil","amazonas","envira","municipality","brazil_NA_envira","brazil_amazonas_envira",-7.766315931,-70.20478827,"county"
"Brazil","Amazonas","Fonte Boa","brazil","amazonas","fonte boa","municipality","brazil_NA_fonte boa","brazil_amazonas_fonte boa",-2.492245115,-66.35861849,"county"
"Brazil","Amazonas","Guajará","brazil","amazonas","guajara","municipality","brazil_NA_guajara","brazil_amazonas_guajara",-7.271893117,-72.83217012,"county"
"Brazil","Amazonas","Humaitá","brazil","amazonas","humaita","municipality","brazil_NA_humaita","brazil_amazonas_humaita",-7.362910358,-62.48538859,"county"
"Brazil","Amazonas","Ipixuna","brazil","amazonas","ipixuna","municipality","brazil_NA_ipixuna","brazil_amazonas_ipixuna",-7.242718105,-71.45848949,"county"
"Brazil","Amazonas","Iranduba","brazil","amazonas","iranduba","municipality","brazil_NA_iranduba","brazil_amazonas_iranduba",-3.095160768,-60.48070739,"county"
"Brazil","Amazonas","Itacoatiara","brazil","amazonas","itacoatiara","municipality","brazil_NA_itacoatiara","brazil_amazonas_itacoatiara",-3.174668894,-58.77722631,"county"
"Brazil","Amazonas","Itamarati","brazil","amazonas","itamarati","municipality","brazil_NA_itamarati","brazil_amazonas_itamarati",-6.682868821,-68.1144199,"county"
"Brazil","Amazonas","Itapiranga","brazil","amazonas","itapiranga","municipality","brazil_NA_itapiranga","brazil_amazonas_itapiranga",-2.498726981,-58.61950853,"county"
"Brazil","Amazonas","Japurá","brazil","amazonas","japura","municipality","brazil_NA_japura","brazil_amazonas_japura",-1.700811436,-68.31415784,"county"
"Brazil","Amazonas","Juruá","brazil","amazonas","jurua","municipality","brazil_NA_jurua","brazil_amazonas_jurua",-3.524632479,-66.30707191,"county"
"Brazil","Amazonas","Jutaí","brazil","amazonas","jutai","municipality","brazil_NA_jutai","brazil_amazonas_jutai",-4.713082043,-68.40430631,"county"
"Brazil","Amazonas","Lábrea","brazil","amazonas","labrea","municipality","brazil_NA_labrea","brazil_amazonas_labrea",-8.375705419,-65.81228323,"county"
"Brazil","Amazonas","Manacapuru","brazil","amazonas","manacapuru","municipality","brazil_NA_manacapuru","brazil_amazonas_manacapuru",-3.291577018,-60.95829918,"county"
"Brazil","Amazonas","Manaquiri","brazil","amazonas","manaquiri","municipality","brazil_NA_manaquiri","brazil_amazonas_manaquiri",-3.779396087,-60.69735401,"county"
"Brazil","Amazonas","Manaus","brazil","amazonas","manaus","municipality","brazil_NA_manaus","brazil_amazonas_manaus",-2.625919383,-60.25962801,"county"
"Brazil","Amazonas","Manicoré","brazil","amazonas","manicore","municipality","brazil_NA_manicore","brazil_amazonas_manicore",-6.459809609,-61.44652275,"county"
"Brazil","Amazonas","Maraã","brazil","amazonas","maraa","municipality","brazil_NA_maraa","brazil_amazonas_maraa",-2.428444661,-65.03827635,"county"
"Brazil","Amazonas","Maués","brazil","amazonas","maues","municipality","brazil_NA_maues","brazil_amazonas_maues",-4.984584196,-58.06099983,"county"
"Brazil","Amazonas","Nhamundá","brazil","amazonas","nhamunda","municipality","brazil_NA_nhamunda","brazil_amazonas_nhamunda",-1.680553681,-57.65628741,"county"
"Brazil","Amazonas","Nova Olinda do Norte","brazil","amazonas","nova olinda do norte","municipality","brazil_NA_nova olinda norte","brazil_amazonas_nova olinda norte",-3.988338881,-58.60183903,"county"
"Brazil","Amazonas","Novo Airão","brazil","amazonas","novo airao","municipality","brazil_NA_novo airao","brazil_amazonas_novo airao",-2.047048619,-61.70191653,"county"
"Brazil","Amazonas","Novo Aripuanã","brazil","amazonas","novo aripuana","municipality","brazil_NA_novo aripuana","brazil_amazonas_novo aripuana",-6.825017058,-60.47717494,"county"
"Brazil","Amazonas","Parintins","brazil","amazonas","parintins","municipality","brazil_NA_parintins","brazil_amazonas_parintins",-2.68835772,-56.85395054,"county"
"Brazil","Amazonas","Pauini","brazil","amazonas","pauini","municipality","brazil_NA_pauini","brazil_amazonas_pauini",-7.783080801,-68.24931239,"county"
"Brazil","Amazonas","Presidente Figueiredo","brazil","amazonas","presidente figueiredo","municipality","brazil_NA_presidente figueiredo","brazil_amazonas_presidente figueiredo",-1.372568079,-59.98879265,"county"
"Brazil","Amazonas","Rio Preto da Eva","brazil","amazonas","rio preto da eva","municipality","brazil_NA_rio preto eva","brazil_amazonas_rio preto eva",-2.529910626,-59.63824079,"county"
"Brazil","Amazonas","Santa Isabel do Rio Negro","brazil","amazonas","santa isabel do rio negro","municipality","brazil_NA_santa isabel rio negro","brazil_amazonas_santa isabel rio negro",-0.318572311,-65.52223044,"county"
"Brazil","Amazonas","Santo Antônio do Içá","brazil","amazonas","santo antonio do ica","municipality","brazil_NA_santo antonio ica","brazil_amazonas_santo antonio ica",-3.050662632,-69.08380594,"county"
"Brazil","Amazonas","São Gabriel da Cachoeira","brazil","amazonas","sao gabriel da cachoeira","municipality","brazil_NA_sao gabriel cachoeira","brazil_amazonas_sao gabriel cachoeira",0.375435011,-68.0015387,"county"
"Brazil","Amazonas","São Paulo de Olivença","brazil","amazonas","sao paulo de olivenca","municipality","brazil_NA_sao paulo olivenca","brazil_amazonas_sao paulo olivenca",-4.497851747,-69.45122456,"county"
"Brazil","Amazonas","São Sebastião do Uatumã","brazil","amazonas","sao sebastiao do uatuma","municipality","brazil_NA_sao sebastiao uatuma","brazil_amazonas_sao sebastiao uatuma",-2.535505,-57.872599,"county"
"Brazil","Amazonas","Silves","brazil","amazonas","silves","municipality","brazil_NA_silves","brazil_amazonas_silves",-2.822149137,-58.5361563,"county"
"Brazil","Amazonas","Tabatinga","brazil","amazonas","tabatinga","municipality","brazil_NA_tabatinga","brazil_amazonas_tabatinga",-4.225059,-69.885677,"county"
"Brazil","Amazonas","Tapauá","brazil","amazonas","tapaua","municipality","brazil_NA_tapaua","brazil_amazonas_tapaua",-6.104516926,-64.89416304,"county"
"Brazil","Amazonas","Tefé","brazil","amazonas","tefe","municipality","brazil_NA_tefe","brazil_amazonas_tefe",-4.468380629,-65.52935009,"county"
"Brazil","Amazonas","Tonantins","brazil","amazonas","tonantins","municipality","brazil_NA_tonantins","brazil_amazonas_tonantins",-2.855718,-67.78792,"county"
"Brazil","Amazonas","Uarini","brazil","amazonas","uarini","municipality","brazil_NA_uarini","brazil_amazonas_uarini",-3.167091731,-65.41207894,"county"
"Brazil","Amazonas","Urucará","brazil","amazonas","urucara","municipality","brazil_NA_urucara","brazil_amazonas_urucara",-0.893905373,-59.0299145,"county"
"Brazil","Amazonas","Urucurituba","brazil","amazonas","urucurituba","municipality","brazil_NA_urucurituba","brazil_amazonas_urucurituba",-2.812290573,-57.77021261,"county"
"Brazil","Roraima","Amajari","brazil","roraima","amajari","municipality","brazil_NA_amajari","brazil_roraima_amajari",3.731869341,-62.43634724,"county"
"Brazil","Roraima","Alto Alegre","brazil","roraima","alto alegre","municipality","brazil_NA_alto alegre","brazil_roraima_alto alegre",3.078163315,-62.75535758,"county"
"Brazil","Roraima","Boa Vista","brazil","roraima","boa vista","municipality","brazil_NA_boa vista","brazil_roraima_boa vista",3.118013279,-60.71790201,"county"
"Brazil","Roraima","Bonfim","brazil","roraima","bonfim","municipality","brazil_NA_bonfim","brazil_roraima_bonfim",2.788975157,-60.10017069,"county"
"Brazil","Roraima","Cantá","brazil","roraima","canta","municipality","brazil_NA_canta","brazil_roraima_canta",2.272877157,-60.54216369,"county"
"Brazil","Roraima","Caracaraí","brazil","roraima","caracarai","municipality","brazil_NA_caracarai","brazil_roraima_caracarai",0.991308804,-61.47087293,"county"
"Brazil","Roraima","Caroebe","brazil","roraima","caroebe","municipality","brazil_NA_caroebe","brazil_roraima_caroebe",0.914976316,-59.33832978,"county"
"Brazil","Roraima","Iracema","brazil","roraima","iracema","municipality","brazil_NA_iracema","brazil_roraima_iracema",2.17885,-61.66986,"county"
"Brazil","Roraima","Mucajaí","brazil","roraima","mucajai","municipality","brazil_NA_mucajai","brazil_roraima_mucajai",2.186650406,-62.46906474,"county"
"Brazil","Roraima","Normandia","brazil","roraima","normandia","municipality","brazil_NA_normandia","brazil_roraima_normandia",3.878648378,-60.06379508,"county"
"Brazil","Roraima","Pacaraima","brazil","roraima","pacaraima","municipality","brazil_NA_pacaraima","brazil_roraima_pacaraima",4.16884269,-60.84432502,"county"
"Brazil","Roraima","Rorainópolis","brazil","roraima","rorainopolis","municipality","brazil_NA_rorainopolis","brazil_roraima_rorainopolis",0.037756951,-61.01049134,"county"
"Brazil","Roraima","São João da Baliza","brazil","roraima","sao joao da baliza","municipality","brazil_NA_sao joao baliza","brazil_roraima_sao joao baliza",0.635691766,-59.84485675,"county"
"Brazil","Roraima","São Luiz","brazil","roraima","sao luiz","municipality","brazil_NA_sao luiz","brazil_roraima_sao luiz",0.884365366,-60.15174559,"county"
"Brazil","Roraima","Uiramutã","brazil","roraima","uiramuta","municipality","brazil_NA_uiramuta","brazil_roraima_uiramuta",4.682422958,-60.27640857,"county"
"Brazil","Pará","Abaetetuba","brazil","para","abaetetuba","municipality","brazil_NA_abaetetuba","brazil_para_abaetetuba",-1.730313589,-48.8830317,"county"
"Brazil","Pará","Abel Figueiredo","brazil","para","abel figueiredo","municipality","brazil_NA_abel figueiredo","brazil_para_abel figueiredo",-4.957409066,-48.42456042,"county"
"Brazil","Pará","Acará","brazil","para","acara","municipality","brazil_NA_acara","brazil_para_acara",-2.03550039,-48.41145336,"county"
"Brazil","Pará","Afuá","brazil","para","afua","municipality","brazil_NA_afua","brazil_para_afua",-0.263832842,-50.72766238,"county"
"Brazil","Pará","Água Azul do Norte","brazil","para","agua azul do norte","municipality","brazil_NA_agua azul norte","brazil_para_agua azul norte",-6.772813774,-50.46043672,"county"
"Brazil","Pará","Alenquer","brazil","para","alenquer","municipality","brazil_NA_alenquer","brazil_para_alenquer",-0.536319939,-55.06987507,"county"
"Brazil","Pará","Almeirim","brazil","para","almeirim","municipality","brazil_NA_almeirim","brazil_para_almeirim",0.284478936,-53.89358505,"county"
"Brazil","Pará","Altamira","brazil","para","altamira","municipality","brazil_NA_altamira","brazil_para_altamira",-6.482663544,-53.88503765,"county"
"Brazil","Pará","Anajás","brazil","para","anajas","municipality","brazil_NA_anajas","brazil_para_anajas",-0.827067556,-49.96205838,"county"
"Brazil","Pará","Ananindeua","brazil","para","ananindeua","municipality","brazil_NA_ananindeua","brazil_para_ananindeua",-1.336392801,-48.38265929,"county"
"Brazil","Pará","Anapu","brazil","para","anapu","municipality","brazil_NA_anapu","brazil_para_anapu",-3.997318049,-51.30115308,"county"
"Brazil","Pará","Augusto Corrêa","brazil","para","augusto correa","municipality","brazil_NA_augusto correa","brazil_para_augusto correa",-1.109704732,-46.50770522,"county"
"Brazil","Pará","Aurora do Pará","brazil","para","aurora do para","municipality","brazil_NA_aurora para","brazil_para_aurora para",-2.231224505,-47.72640094,"county"
"Brazil","Pará","Aveiro","brazil","para","aveiro","municipality","brazil_NA_aveiro","brazil_para_aveiro",-3.667183483,-56.01646326,"county"
"Brazil","Pará","Bagre","brazil","para","bagre","municipality","brazil_NA_bagre","brazil_para_bagre",-2.373143109,-50.18176698,"county"
"Brazil","Pará","Baião","brazil","para","baiao","municipality","brazil_NA_baiao","brazil_para_baiao",-3.129223787,-49.6988214,"county"
"Brazil","Pará","Bannach","brazil","para","bannach","municipality","brazil_NA_bannach","brazil_para_bannach",-7.486311448,-50.63414664,"county"
"Brazil","Pará","Barcarena","brazil","para","barcarena","municipality","brazil_NA_barcarena","brazil_para_barcarena",-1.498574063,-48.6339466,"county"
"Brazil","Pará","Belém","brazil","para","belem","municipality","brazil_NA_belem","brazil_para_belem",-1.240743738,-48.45940304,"county"
"Brazil","Pará","Belterra","brazil","para","belterra","municipality","brazil_NA_belterra","brazil_para_belterra",-3.191151381,-54.9928261,"county"
"Brazil","Pará","Benevides","brazil","para","benevides","municipality","brazil_NA_benevides","brazil_para_benevides",-1.339632647,-48.27541312,"county"
"Brazil","Pará","Bom Jesus do Tocantins","brazil","para","bom jesus do tocantins","municipality","brazil_NA_bom jesus tocantins","brazil_para_bom jesus tocantins",-5.054272018,-48.76360254,"county"
"Brazil","Pará","Bonito","brazil","para","bonito","municipality","brazil_NA_bonito","brazil_para_bonito",-1.387181055,-47.30212257,"county"
"Brazil","Pará","Bragança","brazil","para","braganca","municipality","brazil_NA_braganca","brazil_para_braganca",-1.197963728,-46.76541096,"county"
"Brazil","Pará","Brasil Novo","brazil","para","brasil novo","municipality","brazil_NA_brasil novo","brazil_para_brasil novo",-3.292106289,-52.68540476,"county"
"Brazil","Pará","Brejo Grande do Araguaia","brazil","para","brejo grande do araguaia","municipality","brazil_NA_brejo grande araguaia","brazil_para_brejo grande araguaia",-5.716168888,-48.41787139,"county"
"Brazil","Pará","Breu Branco","brazil","para","breu branco","municipality","brazil_NA_breu branco","brazil_para_breu branco",-3.733472215,-49.37087747,"county"
"Brazil","Pará","Breves","brazil","para","breves","municipality","brazil_NA_breves","brazil_para_breves",-1.121378987,-50.62850807,"county"
"Brazil","Pará","Bujaru","brazil","para","bujaru","municipality","brazil_NA_bujaru","brazil_para_bujaru",-1.634158171,-48.08886367,"county"
"Brazil","Pará","Cachoeira do Piriá","brazil","para","cachoeira do piria","municipality","brazil_NA_cachoeira piria","brazil_para_cachoeira piria",-1.988937278,-46.44093788,"county"
"Brazil","Pará","Cachoeira do Arari","brazil","para","cachoeira do arari","municipality","brazil_NA_cachoeira arari","brazil_para_cachoeira arari",-0.869037946,-48.87763087,"county"
"Brazil","Pará","Cametá","brazil","para","cameta","municipality","brazil_NA_cameta","brazil_para_cameta",-2.253102457,-49.51357056,"county"
"Brazil","Pará","Canaã dos Carajás","brazil","para","canaa dos carajas","municipality","brazil_NA_canaa carajas","brazil_para_canaa carajas",-6.424125051,-50.08589156,"county"
"Brazil","Pará","Capanema","brazil","para","capanema","municipality","brazil_NA_capanema","brazil_para_capanema",-1.145934924,-47.11991833,"county"
"Brazil","Pará","Capitão Poço","brazil","para","capitao poco","municipality","brazil_NA_capitao poco","brazil_para_capitao poco",-2.043743419,-47.23414713,"county"
"Brazil","Pará","Castanhal","brazil","para","castanhal","municipality","brazil_NA_castanhal","brazil_para_castanhal",-1.269026663,-47.87682619,"county"
"Brazil","Pará","Chaves","brazil","para","chaves","municipality","brazil_NA_chaves","brazil_para_chaves",-0.019981267,-49.83526541,"county"
"Brazil","Pará","Colares","brazil","para","colares","municipality","brazil_NA_colares","brazil_para_colares",-0.903987691,-48.28467766,"county"
"Brazil","Pará","Conceição do Araguaia","brazil","para","conceicao do araguaia","municipality","brazil_NA_conceicao araguaia","brazil_para_conceicao araguaia",-8.182563637,-49.51260261,"county"
"Brazil","Pará","Concórdia do Pará","brazil","para","concordia do para","municipality","brazil_NA_concordia para","brazil_para_concordia para",-1.883874052,-47.97474125,"county"
"Brazil","Pará","Cumaru do Norte","brazil","para","cumaru do norte","municipality","brazil_NA_cumaru norte","brazil_para_cumaru norte",-8.458290647,-51.22098299,"county"
"Brazil","Pará","Curionópolis","brazil","para","curionopolis","municipality","brazil_NA_curionopolis","brazil_para_curionopolis",-6.229150895,-49.62452883,"county"
"Brazil","Pará","Curralinho","brazil","para","curralinho","municipality","brazil_NA_curralinho","brazil_para_curralinho",-1.583550921,-49.98802314,"county"
"Brazil","Pará","Curuá","brazil","para","curua","municipality","brazil_NA_curua","brazil_para_curua",-1.845889104,-55.11315727,"county"
"Brazil","Pará","Curuçá","brazil","para","curuca","municipality","brazil_NA_curuca","brazil_para_curuca",-0.763848876,-47.86302258,"county"
"Brazil","Pará","Dom Eliseu","brazil","para","dom eliseu","municipality","brazil_NA_dom eliseu","brazil_para_dom eliseu",-4.186592881,-47.89825426,"county"
"Brazil","Pará","Eldorado do Carajás","brazil","para","eldorado do carajas","municipality","brazil_NA_eldorado carajas","brazil_para_eldorado carajas",-6.069517154,-49.2453685,"county"
"Brazil","Pará","Faro","brazil","para","faro","municipality","brazil_NA_faro","brazil_para_faro",-1.158762701,-57.80637585,"county"
"Brazil","Pará","Floresta do Araguaia","brazil","para","floresta do araguaia","municipality","brazil_NA_floresta araguaia","brazil_para_floresta araguaia",-7.548297432,-49.57598024,"county"
"Brazil","Pará","Garrafão do Norte","brazil","para","garrafao do norte","municipality","brazil_NA_garrafao norte","brazil_para_garrafao norte",-2.168057929,-47.07465492,"county"
"Brazil","Pará","Goianésia do Pará","brazil","para","goianesia do para","municipality","brazil_NA_goianesia para","brazil_para_goianesia para",-4.027439862,-49.00563609,"county"
"Brazil","Pará","Gurupá","brazil","para","gurupa","municipality","brazil_NA_gurupa","brazil_para_gurupa",-1.151838722,-51.55520191,"county"
"Brazil","Pará","Igarapé-Açu","brazil","para","igarape-acu","municipality","brazil_NA_igarape acu","brazil_para_igarape acu",-1.145178313,-47.56615033,"county"
"Brazil","Pará","Igarapé-Miri","brazil","para","igarape-miri","municipality","brazil_NA_igarape miri","brazil_para_igarape miri",-2.06278556,-49.13078081,"county"
"Brazil","Pará","Inhangapi","brazil","para","inhangapi","municipality","brazil_NA_inhangapi","brazil_para_inhangapi",-1.464991376,-47.92314502,"county"
"Brazil","Pará","Ipixuna do Pará","brazil","para","ipixuna do para","municipality","brazil_NA_ipixuna para","brazil_para_ipixuna para",-2.80601509,-47.9217033,"county"
"Brazil","Pará","Irituia","brazil","para","irituia","municipality","brazil_NA_irituia","brazil_para_irituia",-1.812349589,-47.39953686,"county"
"Brazil","Pará","Itaituba","brazil","para","itaituba","municipality","brazil_NA_itaituba","brazil_para_itaituba",-5.871237881,-56.49661754,"county"
"Brazil","Pará","Itupiranga","brazil","para","itupiranga","municipality","brazil_NA_itupiranga","brazil_para_itupiranga",-5.114846345,-49.86966664,"county"
"Brazil","Pará","Jacareacanga","brazil","para","jacareacanga","municipality","brazil_NA_jacareacanga","brazil_para_jacareacanga",-7.444795293,-57.30303465,"county"
"Brazil","Pará","Jacundá","brazil","para","jacunda","municipality","brazil_NA_jacunda","brazil_para_jacunda",-4.598464541,-49.18115736,"county"
"Brazil","Pará","Juruti","brazil","para","juruti","municipality","brazil_NA_juruti","brazil_para_juruti",-2.622695441,-56.22118394,"county"
"Brazil","Pará","Limoeiro do Ajuru","brazil","para","limoeiro do ajuru","municipality","brazil_NA_limoeiro ajuru","brazil_para_limoeiro ajuru",-1.864258541,-49.46910852,"county"
"Brazil","Pará","Mãe do Rio","brazil","para","mae do rio","municipality","brazil_NA_mae rio","brazil_para_mae rio",-1.99115537,-47.51258039,"county"
"Brazil","Pará","Magalhães Barata","brazil","para","magalhaes barata","municipality","brazil_NA_magalhaes barata","brazil_para_magalhaes barata",-0.810665336,-47.63544958,"county"
"Brazil","Pará","Marabá","brazil","para","maraba","municipality","brazil_NA_maraba","brazil_para_maraba",-5.631531319,-50.01942693,"county"
"Brazil","Pará","Maracanã","brazil","para","maracana","municipality","brazil_NA_maracana","brazil_para_maracana",-0.847413738,-47.50424076,"county"
"Brazil","Pará","Marapanim","brazil","para","marapanim","municipality","brazil_NA_marapanim","brazil_para_marapanim",-0.865589772,-47.70815426,"county"
"Brazil","Pará","Marituba","brazil","para","marituba","municipality","brazil_NA_marituba","brazil_para_marituba",-1.397389753,-48.31987251,"county"
"Brazil","Pará","Medicilândia","brazil","para","medicilandia","municipality","brazil_NA_medicilandia","brazil_para_medicilandia",-3.160214196,-53.19488995,"county"
"Brazil","Pará","Melgaço","brazil","para","melgaco","municipality","brazil_NA_melgaco","brazil_para_melgaco",-1.313246456,-51.07596268,"county"
"Brazil","Pará","Mocajuba","brazil","para","mocajuba","municipality","brazil_NA_mocajuba","brazil_para_mocajuba",-2.576522824,-49.46571918,"county"
"Brazil","Pará","Moju","brazil","para","moju","municipality","brazil_NA_moju","brazil_para_moju",-2.684052845,-49.07397116,"county"
"Brazil","Pará","Mojuí dos Campos","brazil","para","mojui dos campos","municipality","brazil_NA_mojui campos","brazil_para_mojui campos",-3.070440006,-54.57515313,"county"
"Brazil","Pará","Monte Alegre","brazil","para","monte alegre","municipality","brazil_NA_monte alegre","brazil_para_monte alegre",-1.139103968,-54.30371185,"county"
"Brazil","Pará","Muaná","brazil","para","muana","municipality","brazil_NA_muana","brazil_para_muana",-1.355511159,-49.30941146,"county"
"Brazil","Pará","Nova Esperança do Piriá","brazil","para","nova esperanca do piria","municipality","brazil_NA_nova esperanca piria","brazil_para_nova esperanca piria",-2.392516201,-46.8995021,"county"
"Brazil","Pará","Nova Ipixuna","brazil","para","nova ipixuna","municipality","brazil_NA_nova ipixuna","brazil_para_nova ipixuna",-4.979156317,-49.22544423,"county"
"Brazil","Pará","Nova Timboteua","brazil","para","nova timboteua","municipality","brazil_NA_nova timboteua","brazil_para_nova timboteua",-1.156400401,-47.39216824,"county"
"Brazil","Pará","Novo Progresso","brazil","para","novo progresso","municipality","brazil_NA_novo progresso","brazil_para_novo progresso",-8.062514043,-55.6120726,"county"
"Brazil","Pará","Novo Repartimento","brazil","para","novo repartimento","municipality","brazil_NA_novo repartimento","brazil_para_novo repartimento",-4.502742346,-50.27161853,"county"
"Brazil","Pará","Óbidos","brazil","para","obidos","municipality","brazil_NA_obidos","brazil_para_obidos",-0.170400608,-55.67495314,"county"
"Brazil","Pará","Oeiras do Pará","brazil","para","oeiras do para","municipality","brazil_NA_oeiras para","brazil_para_oeiras para",-2.278941472,-49.9022855,"county"
"Brazil","Pará","Oriximiná","brazil","para","oriximina","municipality","brazil_NA_oriximina","brazil_para_oriximina",0.25418437,-57.14971172,"county"
"Brazil","Pará","Ourém","brazil","para","ourem","municipality","brazil_NA_ourem","brazil_para_ourem",-1.496057428,-47.13948441,"county"
"Brazil","Pará","Ourilândia do Norte","brazil","para","ourilandia do norte","municipality","brazil_NA_ourilandia norte","brazil_para_ourilandia norte",-7.554417173,-51.45074735,"county"
"Brazil","Pará","Pacajá","brazil","para","pacaja","municipality","brazil_NA_pacaja","brazil_para_pacaja",-3.684007162,-50.63142917,"county"
"Brazil","Pará","Palestina do Pará","brazil","para","palestina do para","municipality","brazil_NA_palestina para","brazil_para_palestina para",-5.926895342,-48.37021726,"county"
"Brazil","Pará","Paragominas","brazil","para","paragominas","municipality","brazil_NA_paragominas","brazil_para_paragominas",-3.20341147,-47.60353852,"county"
"Brazil","Pará","Parauapebas","brazil","para","parauapebas","municipality","brazil_NA_parauapebas","brazil_para_parauapebas",-6.158352242,-50.50063031,"county"
"Brazil","Pará","Pau D'arco","brazil","para","pau d'arco","municipality","brazil_NA_pau arco","brazil_para_pau arco",-7.737197984,-50.12331226,"county"
"Brazil","Pará","Peixe-Boi","brazil","para","peixe-boi","municipality","brazil_NA_peixe boi","brazil_para_peixe boi",-1.130492496,-47.27191463,"county"
"Brazil","Pará","Piçarra","brazil","para","picarra","municipality","brazil_NA_picarra","brazil_para_picarra",-6.540880027,-49.01179049,"county"
"Brazil","Pará","Placas","brazil","para","placas","municipality","brazil_NA_placas","brazil_para_placas",-3.890005549,-54.50058463,"county"
"Brazil","Pará","Ponta de Pedras","brazil","para","ponta de pedras","municipality","brazil_NA_ponta pedras","brazil_para_ponta pedras",-1.117717107,-49.07707132,"county"
"Brazil","Pará","Portel","brazil","para","portel","municipality","brazil_NA_portel","brazil_para_portel",-2.565501589,-50.95552458,"county"
"Brazil","Pará","Porto de Moz","brazil","para","porto de moz","municipality","brazil_NA_porto moz","brazil_para_porto moz",-2.184594927,-52.54794507,"county"
"Brazil","Pará","Prainha","brazil","para","prainha","municipality","brazil_NA_prainha","brazil_para_prainha",-2.260366849,-53.6448904,"county"
"Brazil","Pará","Primavera","brazil","para","primavera","municipality","brazil_NA_primavera","brazil_para_primavera",-0.952779764,-47.13141552,"county"
"Brazil","Pará","Quatipuru","brazil","para","quatipuru","municipality","brazil_NA_quatipuru","brazil_para_quatipuru",-0.864949969,-47.01532625,"county"
"Brazil","Pará","Redenção","brazil","para","redencao","municipality","brazil_NA_redencao","brazil_para_redencao",-8.069359449,-50.1979992,"county"
"Brazil","Pará","Rio Maria","brazil","para","rio maria","municipality","brazil_NA_rio maria","brazil_para_rio maria",-7.340691297,-49.89526536,"county"
"Brazil","Pará","Rondon do Pará","brazil","para","rondon do para","municipality","brazil_NA_rondon para","brazil_para_rondon para",-4.516986717,-48.45992975,"county"
"Brazil","Pará","Rurópolis","brazil","para","ruropolis","municipality","brazil_NA_ruropolis","brazil_para_ruropolis",-4.241007585,-55.21081868,"county"
"Brazil","Pará","Salinópolis","brazil","para","salinopolis","municipality","brazil_NA_salinopolis","brazil_para_salinopolis",-0.685378157,-47.3529892,"county"
"Brazil","Pará","Salvaterra","brazil","para","salvaterra","municipality","brazil_NA_salvaterra","brazil_para_salvaterra",-0.801026707,-48.60887447,"county"
"Brazil","Pará","Santa Bárbara do Pará","brazil","para","santa barbara do para","municipality","brazil_NA_santa barbara para","brazil_para_santa barbara para",-1.194407108,-48.25038295,"county"
"Brazil","Pará","Santa Cruz do Arari","brazil","para","santa cruz do arari","municipality","brazil_NA_santa cruz arari","brazil_para_santa cruz arari",-0.583154169,-49.3142376,"county"
"Brazil","Pará","Santa Izabel do Pará","brazil","para","santa izabel do para","municipality","brazil_NA_santa izabel para","brazil_para_santa izabel para",-1.365206765,-48.12930742,"county"
"Brazil","Pará","Santa Luzia do Pará","brazil","para","santa luzia do para","municipality","brazil_NA_santa luzia para","brazil_para_santa luzia para",-1.655488074,-46.92718034,"county"
"Brazil","Pará","Santa Maria das Barreiras","brazil","para","santa maria das barreiras","municipality","brazil_NA_santa maria barreiras","brazil_para_santa maria barreiras",-8.633738671,-50.31443137,"county"
"Brazil","Pará","Santa Maria do Pará","brazil","para","santa maria do para","municipality","brazil_NA_santa maria para","brazil_para_santa maria para",-1.374401856,-47.52149491,"county"
"Brazil","Pará","Santana do Araguaia","brazil","para","santana do araguaia","municipality","brazil_NA_santana araguaia","brazil_para_santana araguaia",-9.363905131,-50.61117504,"county"
"Brazil","Pará","Santarém","brazil","para","santarem","municipality","brazil_NA_santarem","brazil_para_santarem",-2.603619,-54.664759,"county"
"Brazil","Pará","Santarém Novo","brazil","para","santarem novo","municipality","brazil_NA_santarem novo","brazil_para_santarem novo",-0.913230984,-47.33279761,"county"
"Brazil","Pará","Santo Antônio do Tauá","brazil","para","santo antonio do taua","municipality","brazil_NA_santo antonio taua","brazil_para_santo antonio taua",-1.093210675,-48.18283237,"county"
"Brazil","Pará","São Caetano de Odivelas","brazil","para","sao caetano de odivelas","municipality","brazil_NA_sao caetano odivelas","brazil_para_sao caetano odivelas",-0.768596837,-48.09011813,"county"
"Brazil","Pará","São Domingos do Araguaia","brazil","para","sao domingos do araguaia","municipality","brazil_NA_sao domingos araguaia","brazil_para_sao domingos araguaia",-5.657855557,-48.73046798,"county"
"Brazil","Pará","São Domingos do Capim","brazil","para","sao domingos do capim","municipality","brazil_NA_sao domingos capim","brazil_para_sao domingos capim",-1.883723455,-47.77171493,"county"
"Brazil","Pará","São Félix do Xingu","brazil","para","sao felix do xingu","municipality","brazil_NA_sao felix xingu","brazil_para_sao felix xingu",-7.233149983,-52.25265066,"county"
"Brazil","Pará","São Francisco do Pará","brazil","para","sao francisco do para","municipality","brazil_NA_sao francisco para","brazil_para_sao francisco para",-1.206145796,-47.74670379,"county"
"Brazil","Pará","São Geraldo do Araguaia","brazil","para","sao geraldo do araguaia","municipality","brazil_NA_sao geraldo araguaia","brazil_para_sao geraldo araguaia",-6.18220362,-48.74348916,"county"
"Brazil","Pará","São João da Ponta","brazil","para","sao joao da ponta","municipality","brazil_NA_sao joao ponta","brazil_para_sao joao ponta",-0.870539333,-47.9644056,"county"
"Brazil","Pará","São João de Pirabas","brazil","para","sao joao de pirabas","municipality","brazil_NA_sao joao pirabas","brazil_para_sao joao pirabas",-0.785931938,-47.22166996,"county"
"Brazil","Pará","São João do Araguaia","brazil","para","sao joao do araguaia","municipality","brazil_NA_sao joao araguaia","brazil_para_sao joao araguaia",-5.447367187,-48.69683839,"county"
"Brazil","Pará","São Miguel do Guamá","brazil","para","sao miguel do guama","municipality","brazil_NA_sao miguel guama","brazil_para_sao miguel guama",-1.552596152,-47.61125199,"county"
"Brazil","Pará","São Sebastião da Boa Vista","brazil","para","sao sebastiao da boa vista","municipality","brazil_NA_sao sebastiao boa vista","brazil_para_sao sebastiao boa vista",-1.433951756,-49.68019134,"county"
"Brazil","Pará","Sapucaia","brazil","para","sapucaia","municipality","brazil_NA_sapucaia","brazil_para_sapucaia",-6.838833483,-49.56968974,"county"
"Brazil","Pará","Senador José Porfírio","brazil","para","senador jose porfirio","municipality","brazil_NA_senador jose porfirio","brazil_para_senador jose porfirio",-4.326847745,-51.76316925,"county"
"Brazil","Pará","Soure","brazil","para","soure","municipality","brazil_NA_soure","brazil_para_soure",-0.487895463,-48.60205733,"county"
"Brazil","Pará","Tailândia","brazil","para","tailandia","municipality","brazil_NA_tailandia","brazil_para_tailandia",-2.90777593,-48.73659531,"county"
"Brazil","Pará","Terra Alta","brazil","para","terra alta","municipality","brazil_NA_terra alta","brazil_para_terra alta",-1.003015319,-47.84850637,"county"
"Brazil","Pará","Terra Santa","brazil","para","terra santa","municipality","brazil_NA_terra santa","brazil_para_terra santa",-1.952143477,-56.45834867,"county"
"Brazil","Pará","Tomé-Açu","brazil","para","tome-acu","municipality","brazil_NA_tome acu","brazil_para_tome acu",-2.636011703,-48.26750253,"county"
"Brazil","Pará","Tracuateua","brazil","para","tracuateua","municipality","brazil_NA_tracuateua","brazil_para_tracuateua",-1.039695428,-46.9378796,"county"
"Brazil","Pará","Trairão","brazil","para","trairao","municipality","brazil_NA_trairao","brazil_para_trairao",-5.130089502,-56.00342418,"county"
"Brazil","Pará","Tucumã","brazil","para","tucuma","municipality","brazil_NA_tucuma","brazil_para_tucuma",-6.820203803,-51.39140754,"county"
"Brazil","Pará","Tucuruí","brazil","para","tucurui","municipality","brazil_NA_tucurui","brazil_para_tucurui",-3.855792528,-49.82076011,"county"
"Brazil","Pará","Ulianópolis","brazil","para","ulianopolis","municipality","brazil_NA_ulianopolis","brazil_para_ulianopolis",-3.809612114,-47.49391667,"county"
"Brazil","Pará","Uruará","brazil","para","uruara","municipality","brazil_NA_uruara","brazil_para_uruara",-3.58364455,-53.80725596,"county"
"Brazil","Pará","Vigia","brazil","para","vigia","municipality","brazil_NA_vigia","brazil_para_vigia",-0.864452406,-48.15411901,"county"
"Brazil","Pará","Viseu","brazil","para","viseu","municipality","brazil_NA_viseu","brazil_para_viseu",-1.524381531,-46.45178098,"county"
"Brazil","Pará","Vitória do Xingu","brazil","para","vitoria do xingu","municipality","brazil_NA_vitoria xingu","brazil_para_vitoria xingu",-3.150969746,-51.95559209,"county"
"Brazil","Pará","Xinguara","brazil","para","xinguara","municipality","brazil_NA_xinguara","brazil_para_xinguara",-6.84897,-49.25573,"county"
"Brazil","Amapá","Serra do Navio","brazil","amapa","serra do navio","municipality","brazil_NA_serra navio","brazil_amapa_serra navio",1.649595092,-52.2704484,"county"
"Brazil","Amapá","Amapá","brazil","amapa","amapa","municipality","brazil_NA_amapa","brazil_amapa_amapa",2.045814,-50.797101,"county"
"Brazil","Amapá","Pedra Branca do Amapari","brazil","amapa","pedra branca do amapari","municipality","brazil_NA_pedra branca amapari","brazil_amapa_pedra branca amapari",1.157959494,-52.52373578,"county"
"Brazil","Amapá","Calçoene","brazil","amapa","calcoene","municipality","brazil_NA_calcoene","brazil_amapa_calcoene",2.423216316,-51.4067784,"county"
"Brazil","Amapá","Cutias","brazil","amapa","cutias","municipality","brazil_NA_cutias","brazil_amapa_cutias",1.030315737,-50.48382462,"county"
"Brazil","Amapá","Ferreira Gomes","brazil","amapa","ferreira gomes","municipality","brazil_NA_ferreira gomes","brazil_amapa_ferreira gomes",0.958740406,-51.41916705,"county"
"Brazil","Amapá","Itaubal","brazil","amapa","itaubal","municipality","brazil_NA_itaubal","brazil_amapa_itaubal",0.532167269,-50.65154325,"county"
"Brazil","Amapá","Laranjal do Jari","brazil","amapa","laranjal do jari","municipality","brazil_NA_laranjal jari","brazil_amapa_laranjal jari",1.090935418,-53.30337798,"county"
"Brazil","Amapá","Macapá","brazil","amapa","macapa","municipality","brazil_NA_macapa","brazil_amapa_macapa",0.054909,-51.097275,"county"
"Brazil","Amapá","Mazagão","brazil","amapa","mazagao","municipality","brazil_NA_mazagao","brazil_amapa_mazagao",-0.072918728,-51.94392836,"county"
"Brazil","Amapá","Oiapoque","brazil","amapa","oiapoque","municipality","brazil_NA_oiapoque","brazil_amapa_oiapoque",3.084639025,-51.91311847,"county"
"Brazil","Amapá","Porto Grande","brazil","amapa","porto grande","municipality","brazil_NA_porto grande","brazil_amapa_porto grande",0.587808743,-51.67354619,"county"
"Brazil","Amapá","Pracuúba","brazil","amapa","pracuuba","municipality","brazil_NA_pracuuba","brazil_amapa_pracuuba",1.728475183,-50.60187253,"county"
"Brazil","Amapá","Santana","brazil","amapa","santana","municipality","brazil_NA_santana","brazil_amapa_santana",0.128540855,-51.3794952,"county"
"Brazil","Amapá","Tartarugalzinho","brazil","amapa","tartarugalzinho","municipality","brazil_NA_tartarugalzinho","brazil_amapa_tartarugalzinho",1.504322,-51.01836,"county"
"Brazil","Amapá","Vitória do Jari","brazil","amapa","vitoria do jari","municipality","brazil_NA_vitoria jari","brazil_amapa_vitoria jari",-0.997837686,-52.06110439,"county"
"Brazil","Tocantins","Abreulândia","brazil","tocantins","abreulandia","municipality","brazil_NA_abreulandia","brazil_tocantins_abreulandia",-9.48041506,-49.30978877,"county"
"Brazil","Tocantins","Aguiarnópolis","brazil","tocantins","aguiarnopolis","municipality","brazil_NA_aguiarnopolis","brazil_tocantins_aguiarnopolis",-6.487791135,-47.51326357,"county"
"Brazil","Tocantins","Aliança do Tocantins","brazil","tocantins","alianca do tocantins","municipality","brazil_NA_alianca tocantins","brazil_tocantins_alianca tocantins",-11.33226652,-48.90824805,"county"
"Brazil","Tocantins","Almas","brazil","tocantins","almas","municipality","brazil_NA_almas","brazil_tocantins_almas",-11.42946037,-47.20934113,"county"
"Brazil","Tocantins","Alvorada","brazil","tocantins","alvorada","municipality","brazil_NA_alvorada","brazil_tocantins_alvorada",-12.40866439,-49.11315911,"county"
"Brazil","Tocantins","Ananás","brazil","tocantins","ananas","municipality","brazil_NA_ananas","brazil_tocantins_ananas",-6.233357873,-48.18579978,"county"
"Brazil","Tocantins","Angico","brazil","tocantins","angico","municipality","brazil_NA_angico","brazil_tocantins_angico",-6.436168805,-47.91157842,"county"
"Brazil","Tocantins","Aparecida do Rio Negro","brazil","tocantins","aparecida do rio negro","municipality","brazil_NA_aparecida rio negro","brazil_tocantins_aparecida rio negro",-9.987971464,-48.00074371,"county"
"Brazil","Tocantins","Aragominas","brazil","tocantins","aragominas","municipality","brazil_NA_aragominas","brazil_tocantins_aragominas",-6.945797334,-48.6330865,"county"
"Brazil","Tocantins","Araguacema","brazil","tocantins","araguacema","municipality","brazil_NA_araguacema","brazil_tocantins_araguacema",-8.939294462,-49.50464363,"county"
"Brazil","Tocantins","Araguaçu","brazil","tocantins","araguacu","municipality","brazil_NA_araguacu","brazil_tocantins_araguacu",-12.8410452,-49.69624459,"county"
"Brazil","Tocantins","Araguaína","brazil","tocantins","araguaina","municipality","brazil_NA_araguaina","brazil_tocantins_araguaina",-7.331701826,-48.58788834,"county"
"Brazil","Tocantins","Araguanã","brazil","tocantins","araguana","municipality","brazil_NA_araguana","brazil_tocantins_araguana",-6.791067818,-48.52519482,"county"
"Brazil","Tocantins","Araguatins","brazil","tocantins","araguatins","municipality","brazil_NA_araguatins","brazil_tocantins_araguatins",-5.665365424,-48.10579044,"county"
"Brazil","Tocantins","Arapoema","brazil","tocantins","arapoema","municipality","brazil_NA_arapoema","brazil_tocantins_arapoema",-7.723283127,-48.99986584,"county"
"Brazil","Tocantins","Arraias","brazil","tocantins","arraias","municipality","brazil_NA_arraias","brazil_tocantins_arraias",-12.81870688,-47.04787104,"county"
"Brazil","Tocantins","Augustinópolis","brazil","tocantins","augustinopolis","municipality","brazil_NA_augustinopolis","brazil_tocantins_augustinopolis",-5.493298048,-47.92661796,"county"
"Brazil","Tocantins","Aurora do Tocantins","brazil","tocantins","aurora do tocantins","municipality","brazil_NA_aurora tocantins","brazil_tocantins_aurora tocantins",-12.64261267,-46.41938027,"county"
"Brazil","Tocantins","Axixá do Tocantins","brazil","tocantins","axixa do tocantins","municipality","brazil_NA_axixa tocantins","brazil_tocantins_axixa tocantins",-5.645531093,-47.76617838,"county"
"Brazil","Tocantins","Babaçulândia","brazil","tocantins","babaculandia","municipality","brazil_NA_babaculandia","brazil_tocantins_babaculandia",-7.175077838,-47.85591504,"county"
"Brazil","Tocantins","Bandeirantes do Tocantins","brazil","tocantins","bandeirantes do tocantins","municipality","brazil_NA_bandeirantes tocantins","brazil_tocantins_bandeirantes tocantins",-7.90653285,-48.66951138,"county"
"Brazil","Tocantins","Barra do Ouro","brazil","tocantins","barra do ouro","municipality","brazil_NA_barra ouro","brazil_tocantins_barra ouro",-7.717188256,-47.57864994,"county"
"Brazil","Tocantins","Barrolândia","brazil","tocantins","barrolandia","municipality","brazil_NA_barrolandia","brazil_tocantins_barrolandia",-9.869158978,-48.79156993,"county"
"Brazil","Tocantins","Bernardo Sayão","brazil","tocantins","bernardo sayao","municipality","brazil_NA_bernardo sayao","brazil_tocantins_bernardo sayao",-7.983252553,-48.9688581,"county"
"Brazil","Tocantins","Bom Jesus do Tocantins","brazil","tocantins","bom jesus do tocantins","municipality","brazil_NA_bom jesus tocantins","brazil_tocantins_bom jesus tocantins",-9.012929036,-47.87921257,"county"
"Brazil","Tocantins","Brasilândia do Tocantins","brazil","tocantins","brasilandia do tocantins","municipality","brazil_NA_brasilandia tocantins","brazil_tocantins_brasilandia tocantins",-8.290538737,-48.44289993,"county"
"Brazil","Tocantins","Brejinho de Nazaré","brazil","tocantins","brejinho de nazare","municipality","brazil_NA_brejinho nazare","brazil_tocantins_brejinho nazare",-11.02961568,-48.62511099,"county"
"Brazil","Tocantins","Buriti do Tocantins","brazil","tocantins","buriti do tocantins","municipality","brazil_NA_buriti tocantins","brazil_tocantins_buriti tocantins",-5.33780596,-48.13790461,"county"
"Brazil","Tocantins","Cachoeirinha","brazil","tocantins","cachoeirinha","municipality","brazil_NA_cachoeirinha","brazil_tocantins_cachoeirinha",-6.090516014,-47.84161773,"county"
"Brazil","Tocantins","Campos Lindos","brazil","tocantins","campos lindos","municipality","brazil_NA_campos lindos","brazil_tocantins_campos lindos",-8.203541751,-46.80444455,"county"
"Brazil","Tocantins","Cariri do Tocantins","brazil","tocantins","cariri do tocantins","municipality","brazil_NA_cariri tocantins","brazil_tocantins_cariri tocantins",-11.93395376,-49.20319175,"county"
"Brazil","Tocantins","Carmolândia","brazil","tocantins","carmolandia","municipality","brazil_NA_carmolandia","brazil_tocantins_carmolandia",-7.04559321,-48.37484191,"county"
"Brazil","Tocantins","Carrasco Bonito","brazil","tocantins","carrasco bonito","municipality","brazil_NA_carrasco bonito","brazil_tocantins_carrasco bonito",-5.319551953,-48.01198712,"county"
"Brazil","Tocantins","Caseara","brazil","tocantins","caseara","municipality","brazil_NA_caseara","brazil_tocantins_caseara",-9.400467532,-49.84808351,"county"
"Brazil","Tocantins","Centenário","brazil","tocantins","centenario","municipality","brazil_NA_centenario","brazil_tocantins_centenario",-9.073999555,-47.44505792,"county"
"Brazil","Tocantins","Chapada de Areia","brazil","tocantins","chapada de areia","municipality","brazil_NA_chapada areia","brazil_tocantins_chapada areia",-10.16560864,-49.19640251,"county"
"Brazil","Tocantins","Chapada da Natividade","brazil","tocantins","chapada da natividade","municipality","brazil_NA_chapada natividade","brazil_tocantins_chapada natividade",-11.54306655,-47.84360136,"county"
"Brazil","Tocantins","Colinas do Tocantins","brazil","tocantins","colinas do tocantins","municipality","brazil_NA_colinas tocantins","brazil_tocantins_colinas tocantins",-8.076423256,-48.52972618,"county"
"Brazil","Tocantins","Combinado","brazil","tocantins","combinado","municipality","brazil_NA_combinado","brazil_tocantins_combinado",-12.84680878,-46.50352593,"county"
"Brazil","Tocantins","Conceição do Tocantins","brazil","tocantins","conceicao do tocantins","municipality","brazil_NA_conceicao tocantins","brazil_tocantins_conceicao tocantins",-12.16939414,-47.30330932,"county"
"Brazil","Tocantins","Couto Magalhães","brazil","tocantins","couto magalhaes","municipality","brazil_NA_couto magalhaes","brazil_tocantins_couto magalhaes",-8.436834766,-49.16234643,"county"
"Brazil","Tocantins","Cristalândia","brazil","tocantins","cristalandia","municipality","brazil_NA_cristalandia","brazil_tocantins_cristalandia",-10.63707554,-49.31317133,"county"
"Brazil","Tocantins","Crixás do Tocantins","brazil","tocantins","crixas do tocantins","municipality","brazil_NA_crixas tocantins","brazil_tocantins_crixas tocantins",-11.17264296,-49.07357187,"county"
"Brazil","Tocantins","Darcinópolis","brazil","tocantins","darcinopolis","municipality","brazil_NA_darcinopolis","brazil_tocantins_darcinopolis",-6.771020724,-47.75083676,"county"
"Brazil","Tocantins","Dianópolis","brazil","tocantins","dianopolis","municipality","brazil_NA_dianopolis","brazil_tocantins_dianopolis",-11.70019372,-46.80913354,"county"
"Brazil","Tocantins","Divinópolis do Tocantins","brazil","tocantins","divinopolis do tocantins","municipality","brazil_NA_divinopolis tocantins","brazil_tocantins_divinopolis tocantins",-9.271297966,-49.06648475,"county"
"Brazil","Tocantins","Dois Irmãos do Tocantins","brazil","tocantins","dois irmaos do tocantins","municipality","brazil_NA_dois irmaos tocantins","brazil_tocantins_dois irmaos tocantins",-9.271297966,-49.06648475,"county"
"Brazil","Tocantins","Dueré","brazil","tocantins","duere","municipality","brazil_NA_duere","brazil_tocantins_duere",-11.42846574,-49.39089162,"county"
"Brazil","Tocantins","Esperantina","brazil","tocantins","esperantina","municipality","brazil_NA_esperantina","brazil_tocantins_esperantina",-5.326389988,-48.54033941,"county"
"Brazil","Tocantins","Fátima","brazil","tocantins","fatima","municipality","brazil_NA_fatima","brazil_tocantins_fatima",-10.546,-38.22367,"county"
"Brazil","Tocantins","Figueirópolis","brazil","tocantins","figueiropolis","municipality","brazil_NA_figueiropolis","brazil_tocantins_figueiropolis",-12.26414921,-49.28320292,"county"
"Brazil","Tocantins","Filadélfia","brazil","tocantins","filadelfia","municipality","brazil_NA_filadelfia","brazil_tocantins_filadelfia",-7.496778613,-47.79404255,"county"
"Brazil","Tocantins","Formoso do Araguaia","brazil","tocantins","formoso do araguaia","municipality","brazil_NA_formoso araguaia","brazil_tocantins_formoso araguaia",-11.9590049,-50.09805451,"county"
"Brazil","Tocantins","Tabocão","brazil","tocantins","tabocao","municipality","brazil_NA_tabocao","brazil_tocantins_fortaleza tabocao",-9.072728002,-48.54579392,"county"
"Brazil","Tocantins","Goianorte","brazil","tocantins","goianorte","municipality","brazil_NA_goianorte","brazil_tocantins_goianorte",-8.873715967,-49.00996475,"county"
"Brazil","Tocantins","Goiatins","brazil","tocantins","goiatins","municipality","brazil_NA_goiatins","brazil_tocantins_goiatins",-8.093603284,-47.48110748,"county"
"Brazil","Tocantins","Guaraí","brazil","tocantins","guarai","municipality","brazil_NA_guarai","brazil_tocantins_guarai",-8.738874192,-48.44149753,"county"
"Brazil","Tocantins","Gurupi","brazil","tocantins","gurupi","municipality","brazil_NA_gurupi","brazil_tocantins_gurupi",-11.65217579,-48.88683914,"county"
"Brazil","Tocantins","Ipueiras","brazil","tocantins","ipueiras","municipality","brazil_NA_ipueiras","brazil_tocantins_ipueiras",-11.13635499,-48.40414097,"county"
"Brazil","Tocantins","Itacajá","brazil","tocantins","itacaja","municipality","brazil_NA_itacaja","brazil_tocantins_itacaja",-8.571325452,-47.66885652,"county"
"Brazil","Tocantins","Itaguatins","brazil","tocantins","itaguatins","municipality","brazil_NA_itaguatins","brazil_tocantins_itaguatins",-5.803628599,-47.59630764,"county"
"Brazil","Tocantins","Itapiratins","brazil","tocantins","itapiratins","municipality","brazil_NA_itapiratins","brazil_tocantins_itapiratins",-8.31681603,-48.03297083,"county"
"Brazil","Tocantins","Itaporã do Tocantins","brazil","tocantins","itapora do tocantins","municipality","brazil_NA_itapora tocantins","brazil_tocantins_itapora tocantins",-8.45738106,-48.75726611,"county"
"Brazil","Tocantins","Jaú do Tocantins","brazil","tocantins","jau do tocantins","municipality","brazil_NA_jau tocantins","brazil_tocantins_jau tocantins",-12.74840521,-48.6458998,"county"
"Brazil","Tocantins","Juarina","brazil","tocantins","juarina","municipality","brazil_NA_juarina","brazil_tocantins_juarina",-8.140222338,-49.11058162,"county"
"Brazil","Tocantins","Lagoa da Confusão","brazil","tocantins","lagoa da confusao","municipality","brazil_NA_lagoa confusao","brazil_tocantins_lagoa confusao",-11.03617317,-50.1604761,"county"
"Brazil","Tocantins","Lagoa do Tocantins","brazil","tocantins","lagoa do tocantins","municipality","brazil_NA_lagoa tocantins","brazil_tocantins_lagoa tocantins",-10.3419612,-47.48146656,"county"
"Brazil","Tocantins","Lajeado","brazil","tocantins","lajeado","municipality","brazil_NA_lajeado","brazil_tocantins_lajeado",-9.848515141,-48.29007924,"county"
"Brazil","Tocantins","Lavandeira","brazil","tocantins","lavandeira","municipality","brazil_NA_lavandeira","brazil_tocantins_lavandeira",-12.82057125,-46.39460256,"county"
"Brazil","Tocantins","Lizarda","brazil","tocantins","lizarda","municipality","brazil_NA_lizarda","brazil_tocantins_lizarda",-9.525416263,-46.93880183,"county"
"Brazil","Tocantins","Luzinópolis","brazil","tocantins","luzinopolis","municipality","brazil_NA_luzinopolis","brazil_tocantins_luzinopolis",-6.206231666,-47.83039581,"county"
"Brazil","Tocantins","Marianópolis do Tocantins","brazil","tocantins","marianopolis do tocantins","municipality","brazil_NA_marianopolis tocantins","brazil_tocantins_marianopolis tocantins",-9.787711635,-49.6998057,"county"
"Brazil","Tocantins","Mateiros","brazil","tocantins","mateiros","municipality","brazil_NA_mateiros","brazil_tocantins_mateiros",-10.57724882,-46.50677778,"county"
"Brazil","Tocantins","Maurilândia do Tocantins","brazil","tocantins","maurilandia do tocantins","municipality","brazil_NA_maurilandia tocantins","brazil_tocantins_maurilandia tocantins",-6.024141322,-47.58971782,"county"
"Brazil","Tocantins","Miracema do Tocantins","brazil","tocantins","miracema do tocantins","municipality","brazil_NA_miracema tocantins","brazil_tocantins_miracema tocantins",-9.754156013,-48.55121121,"county"
"Brazil","Tocantins","Miranorte","brazil","tocantins","miranorte","municipality","brazil_NA_miranorte","brazil_tocantins_miranorte",-9.417536422,-48.68303085,"county"
"Brazil","Tocantins","Monte do Carmo","brazil","tocantins","monte do carmo","municipality","brazil_NA_monte carmo","brazil_tocantins_monte carmo",-11.13218773,-48.00779294,"county"
"Brazil","Tocantins","Monte Santo do Tocantins","brazil","tocantins","monte santo do tocantins","municipality","brazil_NA_monte santo tocantins","brazil_tocantins_monte santo tocantins",-10.00049828,-49.06708601,"county"
"Brazil","Tocantins","Palmeiras do Tocantins","brazil","tocantins","palmeiras do tocantins","municipality","brazil_NA_palmeiras tocantins","brazil_tocantins_palmeiras tocantins",-6.599771988,-47.6425509,"county"
"Brazil","Tocantins","Muricilândia","brazil","tocantins","muricilandia","municipality","brazil_NA_muricilandia","brazil_tocantins_muricilandia",-7.003797055,-48.78702657,"county"
"Brazil","Tocantins","Natividade","brazil","tocantins","natividade","municipality","brazil_NA_natividade","brazil_tocantins_natividade",-11.80025315,-47.64868375,"county"
"Brazil","Tocantins","Nazaré","brazil","tocantins","nazare","municipality","brazil_NA_nazare","brazil_tocantins_nazare",-6.330321924,-47.78119038,"county"
"Brazil","Tocantins","Nova Olinda","brazil","tocantins","nova olinda","municipality","brazil_NA_nova olinda","brazil_tocantins_nova olinda",-7.662243118,-48.35780463,"county"
"Brazil","Tocantins","Nova Rosalândia","brazil","tocantins","nova rosalandia","municipality","brazil_NA_nova rosalandia","brazil_tocantins_nova rosalandia",-10.55780724,-48.97390061,"county"
"Brazil","Tocantins","Novo Acordo","brazil","tocantins","novo acordo","municipality","brazil_NA_novo acordo","brazil_tocantins_novo acordo",-10.15582059,-47.38288636,"county"
"Brazil","Tocantins","Novo Alegre","brazil","tocantins","novo alegre","municipality","brazil_NA_novo alegre","brazil_tocantins_novo alegre",-12.91409472,-46.5598961,"county"
"Brazil","Tocantins","Novo Jardim","brazil","tocantins","novo jardim","municipality","brazil_NA_novo jardim","brazil_tocantins_novo jardim",-11.77119574,-46.55007187,"county"
"Brazil","Tocantins","Oliveira de Fátima","brazil","tocantins","oliveira de fatima","municipality","brazil_NA_oliveira fatima","brazil_tocantins_oliveira fatima",-10.67417923,-48.87683023,"county"
"Brazil","Tocantins","Palmeirante","brazil","tocantins","palmeirante","municipality","brazil_NA_palmeirante","brazil_tocantins_palmeirante",-7.889798598,-48.14020557,"county"
"Brazil","Tocantins","Palmeirópolis","brazil","tocantins","palmeiropolis","municipality","brazil_NA_palmeiropolis","brazil_tocantins_palmeiropolis",-13.01975532,-48.34878873,"county"
"Brazil","Tocantins","Paraíso do Tocantins","brazil","tocantins","paraiso do tocantins","municipality","brazil_NA_paraiso tocantins","brazil_tocantins_paraiso tocantins",-10.22537475,-48.82978855,"county"
"Brazil","Tocantins","Paranã","brazil","tocantins","parana","municipality","brazil_NA_parana","brazil_tocantins_parana",-12.69579961,-47.81217512,"county"
"Brazil","Tocantins","Pau D'arco","brazil","tocantins","pau d'arco","municipality","brazil_NA_pau arco","brazil_tocantins_pau arco",-7.538894555,-49.01382429,"county"
"Brazil","Tocantins","Pedro Afonso","brazil","tocantins","pedro afonso","municipality","brazil_NA_pedro afonso","brazil_tocantins_pedro afonso",-9.22734859,-48.03405912,"county"
"Brazil","Tocantins","Peixe","brazil","tocantins","peixe","municipality","brazil_NA_peixe","brazil_tocantins_peixe",-11.99678445,-48.55515337,"county"
"Brazil","Tocantins","Pequizeiro","brazil","tocantins","pequizeiro","municipality","brazil_NA_pequizeiro","brazil_tocantins_pequizeiro",-8.379529967,-48.91698882,"county"
"Brazil","Tocantins","Colméia","brazil","tocantins","colmeia","municipality","brazil_NA_colmeia","brazil_tocantins_colmeia",-8.837107622,-48.76467062,"county"
"Brazil","Tocantins","Pindorama do Tocantins","brazil","tocantins","pindorama do tocantins","municipality","brazil_NA_pindorama tocantins","brazil_tocantins_pindorama tocantins",-11.1601803,-47.55928027,"county"
"Brazil","Tocantins","Piraquê","brazil","tocantins","piraque","municipality","brazil_NA_piraque","brazil_tocantins_piraque",-6.822368606,-48.28883967,"county"
"Brazil","Tocantins","Pium","brazil","tocantins","pium","municipality","brazil_NA_pium","brazil_tocantins_pium",-10.21034902,-49.8727364,"county"
"Brazil","Tocantins","Ponte Alta do Bom Jesus","brazil","tocantins","ponte alta do bom jesus","municipality","brazil_NA_ponte alta bom jesus","brazil_tocantins_ponte alta bom jesus",-12.05220345,-46.57903333,"county"
"Brazil","Tocantins","Ponte Alta do Tocantins","brazil","tocantins","ponte alta do tocantins","municipality","brazil_NA_ponte alta tocantins","brazil_tocantins_ponte alta tocantins",-10.75189149,-47.32776452,"county"
"Brazil","Tocantins","Porto Alegre do Tocantins","brazil","tocantins","porto alegre do tocantins","municipality","brazil_NA_porto alegre tocantins","brazil_tocantins_porto alegre tocantins",-11.5113182,-47.04652045,"county"
"Brazil","Tocantins","Porto Nacional","brazil","tocantins","porto nacional","municipality","brazil_NA_porto nacional","brazil_tocantins_porto nacional",-10.54431692,-48.49654221,"county"
"Brazil","Tocantins","Praia Norte","brazil","tocantins","praia norte","municipality","brazil_NA_praia norte","brazil_tocantins_praia norte",-5.472551542,-47.78338599,"county"
"Brazil","Tocantins","Presidente Kennedy","brazil","tocantins","presidente kennedy","municipality","brazil_NA_presidente kennedy","brazil_tocantins_presidente kennedy",-8.462399567,-48.46139976,"county"
"Brazil","Tocantins","Pugmil","brazil","tocantins","pugmil","municipality","brazil_NA_pugmil","brazil_tocantins_pugmil",-10.42256808,-48.88322206,"county"
"Brazil","Tocantins","Recursolândia","brazil","tocantins","recursolandia","municipality","brazil_NA_recursolandia","brazil_tocantins_recursolandia",-8.697214893,-47.11293306,"county"
"Brazil","Tocantins","Riachinho","brazil","tocantins","riachinho","municipality","brazil_NA_riachinho","brazil_tocantins_riachinho",-6.484801402,-48.12477041,"county"
"Brazil","Tocantins","Rio da Conceição","brazil","tocantins","rio da conceicao","municipality","brazil_NA_rio conceicao","brazil_tocantins_rio conceicao",-11.34382475,-46.74926208,"county"
"Brazil","Tocantins","Rio dos Bois","brazil","tocantins","rio dos bois","municipality","brazil_NA_rio bois","brazil_tocantins_rio bois",-9.235872712,-48.45185954,"county"
"Brazil","Tocantins","Rio Sono","brazil","tocantins","rio sono","municipality","brazil_NA_rio sono","brazil_tocantins_rio sono",-9.648138088,-47.49620632,"county"
"Brazil","Tocantins","Sampaio","brazil","tocantins","sampaio","municipality","brazil_NA_sampaio","brazil_tocantins_sampaio",-5.340025447,-47.92131421,"county"
"Brazil","Tocantins","Sandolândia","brazil","tocantins","sandolandia","municipality","brazil_NA_sandolandia","brazil_tocantins_sandolandia",-12.40189371,-49.87611712,"county"
"Brazil","Tocantins","Santa Fé do Araguaia","brazil","tocantins","santa fe do araguaia","municipality","brazil_NA_santa fe araguaia","brazil_tocantins_santa fe araguaia",-7.093929209,-48.97367876,"county"
"Brazil","Tocantins","Santa Maria do Tocantins","brazil","tocantins","santa maria do tocantins","municipality","brazil_NA_santa maria tocantins","brazil_tocantins_santa maria tocantins",-8.824462967,-47.84857461,"county"
"Brazil","Tocantins","Santa Rita do Tocantins","brazil","tocantins","santa rita do tocantins","municipality","brazil_NA_santa rita tocantins","brazil_tocantins_santa rita tocantins",-10.97107471,-49.29556371,"county"
"Brazil","Tocantins","Santa Rosa do Tocantins","brazil","tocantins","santa rosa do tocantins","municipality","brazil_NA_santa rosa tocantins","brazil_tocantins_santa rosa tocantins",-11.39847922,-48.10810669,"county"
"Brazil","Tocantins","Santa Tereza do Tocantins","brazil","tocantins","santa tereza do tocantins","municipality","brazil_NA_santa tereza tocantins","brazil_tocantins_santa tereza tocantins",-10.29918149,-47.74184608,"county"
"Brazil","Tocantins","Santa Terezinha do Tocantins","brazil","tocantins","santa terezinha do tocantins","municipality","brazil_NA_santa terezinha tocantins","brazil_tocantins_santa terezinha tocantins",-6.472267614,-47.75036343,"county"
"Brazil","Tocantins","São Bento do Tocantins","brazil","tocantins","sao bento do tocantins","municipality","brazil_NA_sao bento tocantins","brazil_tocantins_sao bento tocantins",-5.974781376,-47.93943527,"county"
"Brazil","Tocantins","São Félix do Tocantins","brazil","tocantins","sao felix do tocantins","municipality","brazil_NA_sao felix tocantins","brazil_tocantins_sao felix tocantins",-10.06905013,-46.67833566,"county"
"Brazil","Tocantins","São Miguel do Tocantins","brazil","tocantins","sao miguel do tocantins","municipality","brazil_NA_sao miguel tocantins","brazil_tocantins_sao miguel tocantins",-5.542545547,-47.59541639,"county"
"Brazil","Tocantins","São Salvador do Tocantins","brazil","tocantins","sao salvador do tocantins","municipality","brazil_NA_sao salvador tocantins","brazil_tocantins_sao salvador tocantins",-12.57825658,-48.36524195,"county"
"Brazil","Tocantins","São Sebastião do Tocantins","brazil","tocantins","sao sebastiao do tocantins","municipality","brazil_NA_sao sebastiao tocantins","brazil_tocantins_sao sebastiao tocantins",-5.240584292,-48.33179541,"county"
"Brazil","Tocantins","São Valério","brazil","tocantins","sao valerio","municipality","brazil_NA_sao valerio","brazil_tocantins_sao valerio",-11.80420193,-48.17055308,"county"
"Brazil","Tocantins","Silvanópolis","brazil","tocantins","silvanopolis","municipality","brazil_NA_silvanopolis","brazil_tocantins_silvanopolis",-11.11343,-48.22341,"county"
"Brazil","Tocantins","Sítio Novo do Tocantins","brazil","tocantins","sitio novo do tocantins","municipality","brazil_NA_sitio novo tocantins","brazil_tocantins_sitio novo tocantins",-5.630021881,-47.68636844,"county"
"Brazil","Tocantins","Sucupira","brazil","tocantins","sucupira","municipality","brazil_NA_sucupira","brazil_tocantins_sucupira",-12.11346778,-48.83513966,"county"
"Brazil","Tocantins","Taguatinga","brazil","tocantins","taguatinga","municipality","brazil_NA_taguatinga","brazil_tocantins_taguatinga",-12.3870621,-46.55586572,"county"
"Brazil","Tocantins","Taipas do Tocantins","brazil","tocantins","taipas do tocantins","municipality","brazil_NA_taipas tocantins","brazil_tocantins_taipas tocantins",-12.14021673,-46.99437335,"county"
"Brazil","Tocantins","Talismã","brazil","tocantins","talisma","municipality","brazil_NA_talisma","brazil_tocantins_talisma",-12.68298436,-49.04827686,"county"
"Brazil","Tocantins","Palmas","brazil","tocantins","palmas","municipality","brazil_NA_palmas","brazil_tocantins_palmas",-10.21860427,-48.1537114,"county"
"Brazil","Tocantins","Tocantínia","brazil","tocantins","tocantinia","municipality","brazil_NA_tocantinia","brazil_tocantins_tocantinia",-9.602814189,-48.14028967,"county"
"Brazil","Tocantins","Tocantinópolis","brazil","tocantins","tocantinopolis","municipality","brazil_NA_tocantinopolis","brazil_tocantins_tocantinopolis",-6.257060021,-47.53766713,"county"
"Brazil","Tocantins","Tupirama","brazil","tocantins","tupirama","municipality","brazil_NA_tupirama","brazil_tocantins_tupirama",-8.786692506,-48.39803727,"county"
"Brazil","Tocantins","Tupiratins","brazil","tocantins","tupiratins","municipality","brazil_NA_tupiratins","brazil_tocantins_tupiratins",-8.356611722,-48.21106494,"county"
"Brazil","Tocantins","Wanderlândia","brazil","tocantins","wanderlandia","municipality","brazil_NA_wanderlandia","brazil_tocantins_wanderlandia",-6.911286279,-48.00166705,"county"
"Brazil","Tocantins","Xambioá","brazil","tocantins","xambioa","municipality","brazil_NA_xambioa","brazil_tocantins_xambioa",-6.550939979,-48.36657832,"county"
"Brazil","Maranhão","Açailândia","brazil","maranhao","acailandia","municipality","brazil_NA_acailandia","brazil_maranhao_acailandia",-4.78584459,-47.33242336,"county"
"Brazil","Maranhão","Afonso Cunha","brazil","maranhao","afonso cunha","municipality","brazil_NA_afonso cunha","brazil_maranhao_afonso cunha",-4.21480747,-43.29735351,"county"
"Brazil","Maranhão","Água Doce do Maranhão","brazil","maranhao","agua doce do maranhao","municipality","brazil_NA_agua doce maranhao","brazil_maranhao_agua doce maranhao",-2.956943851,-42.17001949,"county"
"Brazil","Maranhão","Alcântara","brazil","maranhao","alcantara","municipality","brazil_NA_alcantara","brazil_maranhao_alcantara",-2.40551012,-44.52931691,"county"
"Brazil","Maranhão","Aldeias Altas","brazil","maranhao","aldeias altas","municipality","brazil_NA_aldeias altas","brazil_maranhao_aldeias altas",-4.502750332,-43.38349888,"county"
"Brazil","Maranhão","Altamira do Maranhão","brazil","maranhao","altamira do maranhao","municipality","brazil_NA_altamira maranhao","brazil_maranhao_altamira maranhao",-4.117754408,-45.50333622,"county"
"Brazil","Maranhão","Alto Alegre do Maranhão","brazil","maranhao","alto alegre do maranhao","municipality","brazil_NA_alto alegre maranhao","brazil_maranhao_alto alegre maranhao",-4.209332452,-44.39354527,"county"
"Brazil","Maranhão","Alto Alegre do Pindaré","brazil","maranhao","alto alegre do pindare","municipality","brazil_NA_alto alegre pindare","brazil_maranhao_alto alegre pindare",-3.880521675,-46.00772367,"county"
"Brazil","Maranhão","Alto Parnaíba","brazil","maranhao","alto parnaiba","municipality","brazil_NA_alto parnaiba","brazil_maranhao_alto parnaiba",-9.508295204,-46.21303791,"county"
"Brazil","Maranhão","Amapá do Maranhão","brazil","maranhao","amapa do maranhao","municipality","brazil_NA_amapa maranhao","brazil_maranhao_amapa maranhao",-1.673074839,-45.94804437,"county"
"Brazil","Maranhão","Amarante do Maranhão","brazil","maranhao","amarante do maranhao","municipality","brazil_NA_amarante maranhao","brazil_maranhao_amarante maranhao",-5.285455692,-46.57307486,"county"
"Brazil","Maranhão","Anajatuba","brazil","maranhao","anajatuba","municipality","brazil_NA_anajatuba","brazil_maranhao_anajatuba",-3.259381718,-44.58012395,"county"
"Brazil","Maranhão","Anapurus","brazil","maranhao","anapurus","municipality","brazil_NA_anapurus","brazil_maranhao_anapurus",-3.669531,-43.117837,"county"
"Brazil","Maranhão","Apicum-Açu","brazil","maranhao","apicum-acu","municipality","brazil_NA_apicum acu","brazil_maranhao_apicum acu",-1.546477458,-45.08532395,"county"
"Brazil","Maranhão","Araguanã","brazil","maranhao","araguana","municipality","brazil_NA_araguana","brazil_maranhao_araguana",-3.079609044,-45.78736758,"county"
"Brazil","Maranhão","Araioses","brazil","maranhao","araioses","municipality","brazil_NA_araioses","brazil_maranhao_araioses",-2.994157054,-42.01165546,"county"
"Brazil","Maranhão","Arame","brazil","maranhao","arame","municipality","brazil_NA_arame","brazil_maranhao_arame",-5.060098117,-45.95425422,"county"
"Brazil","Maranhão","Arari","brazil","maranhao","arari","municipality","brazil_NA_arari","brazil_maranhao_arari",-3.533286794,-44.7273744,"county"
"Brazil","Maranhão","Axixá","brazil","maranhao","axixa","municipality","brazil_NA_axixa","brazil_maranhao_axixa",-2.847169932,-44.09877247,"county"
"Brazil","Maranhão","Bacabal","brazil","maranhao","bacabal","municipality","brazil_NA_bacabal","brazil_maranhao_bacabal",-4.17065321,-44.75748872,"county"
"Brazil","Maranhão","Bacabeira","brazil","maranhao","bacabeira","municipality","brazil_NA_bacabeira","brazil_maranhao_bacabeira",-2.932982328,-44.36739564,"county"
"Brazil","Maranhão","Bacuri","brazil","maranhao","bacuri","municipality","brazil_NA_bacuri","brazil_maranhao_bacuri",-1.689494982,-45.14351726,"county"
"Brazil","Maranhão","Bacurituba","brazil","maranhao","bacurituba","municipality","brazil_NA_bacurituba","brazil_maranhao_bacurituba",-2.69080847,-44.63227101,"county"
"Brazil","Maranhão","Balsas","brazil","maranhao","balsas","municipality","brazil_NA_balsas","brazil_maranhao_balsas",-8.237881711,-46.34284759,"county"
"Brazil","Maranhão","Barão de Grajaú","brazil","maranhao","barao de grajau","municipality","brazil_NA_barao grajau","brazil_maranhao_barao grajau",-6.58905235,-43.19149624,"county"
"Brazil","Maranhão","Barra do Corda","brazil","maranhao","barra do corda","municipality","brazil_NA_barra corda","brazil_maranhao_barra corda",-5.652980815,-45.25401976,"county"
"Brazil","Maranhão","Barreirinhas","brazil","maranhao","barreirinhas","municipality","brazil_NA_barreirinhas","brazil_maranhao_barreirinhas",-2.84873236,-42.91842314,"county"
"Brazil","Maranhão","Belágua","brazil","maranhao","belagua","municipality","brazil_NA_belagua","brazil_maranhao_belagua",-3.087825333,-43.45673164,"county"
"Brazil","Maranhão","Bela Vista do Maranhão","brazil","maranhao","bela vista do maranhao","municipality","brazil_NA_bela vista maranhao","brazil_maranhao_bela vista maranhao",-3.779654212,-45.30717005,"county"
"Brazil","Maranhão","Benedito Leite","brazil","maranhao","benedito leite","municipality","brazil_NA_benedito leite","brazil_maranhao_benedito leite",-7.120114098,-44.56798693,"county"
"Brazil","Maranhão","Bequimão","brazil","maranhao","bequimao","municipality","brazil_NA_bequimao","brazil_maranhao_bequimao",-2.426584904,-44.78889217,"county"
"Brazil","Maranhão","Bernardo do Mearim","brazil","maranhao","bernardo do mearim","municipality","brazil_NA_bernardo mearim","brazil_maranhao_bernardo mearim",-4.675788418,-44.69032504,"county"
"Brazil","Maranhão","Boa Vista do Gurupi","brazil","maranhao","boa vista do gurupi","municipality","brazil_NA_boa vista gurupi","brazil_maranhao_boa vista gurupi",-1.762342652,-46.17826235,"county"
"Brazil","Maranhão","Bom Jardim","brazil","maranhao","bom jardim","municipality","brazil_NA_bom jardim","brazil_maranhao_bom jardim",-3.900357397,-46.41831856,"county"
"Brazil","Maranhão","Bom Jesus das Selvas","brazil","maranhao","bom jesus das selvas","municipality","brazil_NA_bom jesus selvas","brazil_maranhao_bom jesus selvas",-4.600579168,-46.68865138,"county"
"Brazil","Maranhão","Bom Lugar","brazil","maranhao","bom lugar","municipality","brazil_NA_bom lugar","brazil_maranhao_bom lugar",-4.346647384,-45.02098321,"county"
"Brazil","Maranhão","Brejo","brazil","maranhao","brejo","municipality","brazil_NA_brejo","brazil_maranhao_brejo",-3.686999179,-42.8283739,"county"
"Brazil","Maranhão","Brejo de Areia","brazil","maranhao","brejo de areia","municipality","brazil_NA_brejo areia","brazil_maranhao_brejo areia",-4.376753718,-45.52521749,"county"
"Brazil","Maranhão","Buriti","brazil","maranhao","buriti","municipality","brazil_NA_buriti","brazil_maranhao_buriti",-3.900402847,-43.0017758,"county"
"Brazil","Maranhão","Buriti Bravo","brazil","maranhao","buriti bravo","municipality","brazil_NA_buriti bravo","brazil_maranhao_buriti bravo",-5.789185066,-43.83055167,"county"
"Brazil","Maranhão","Buriticupu","brazil","maranhao","buriticupu","municipality","brazil_NA_buriticupu","brazil_maranhao_buriticupu",-4.493495795,-46.34242257,"county"
"Brazil","Maranhão","Buritirana","brazil","maranhao","buritirana","municipality","brazil_NA_buritirana","brazil_maranhao_buritirana",-5.518154226,-47.06143605,"county"
"Brazil","Maranhão","Cachoeira Grande","brazil","maranhao","cachoeira grande","municipality","brazil_NA_cachoeira grande","brazil_maranhao_cachoeira grande",-3.120065958,-43.93126506,"county"
"Brazil","Maranhão","Cajapió","brazil","maranhao","cajapio","municipality","brazil_NA_cajapio","brazil_maranhao_cajapio",-2.863839026,-44.57324669,"county"
"Brazil","Maranhão","Cajari","brazil","maranhao","cajari","municipality","brazil_NA_cajari","brazil_maranhao_cajari",-3.382656801,-45.03030694,"county"
"Brazil","Maranhão","Campestre do Maranhão","brazil","maranhao","campestre do maranhao","municipality","brazil_NA_campestre maranhao","brazil_maranhao_campestre maranhao",-6.176238854,-47.26364002,"county"
"Brazil","Maranhão","Cândido Mendes","brazil","maranhao","candido mendes","municipality","brazil_NA_candido mendes","brazil_maranhao_candido mendes",-1.627188572,-45.67912598,"county"
"Brazil","Maranhão","Cantanhede","brazil","maranhao","cantanhede","municipality","brazil_NA_cantanhede","brazil_maranhao_cantanhede",-3.618797974,-44.26226894,"county"
"Brazil","Maranhão","Capinzal do Norte","brazil","maranhao","capinzal do norte","municipality","brazil_NA_capinzal norte","brazil_maranhao_capinzal norte",-4.673610669,-44.30523058,"county"
"Brazil","Maranhão","Carolina","brazil","maranhao","carolina","municipality","brazil_NA_carolina","brazil_maranhao_carolina",-7.373220873,-47.20256408,"county"
"Brazil","Maranhão","Carutapera","brazil","maranhao","carutapera","municipality","brazil_NA_carutapera","brazil_maranhao_carutapera",-1.348085473,-46.03133532,"county"
"Brazil","Maranhão","Caxias","brazil","maranhao","caxias","municipality","brazil_NA_caxias","brazil_maranhao_caxias",-4.867715123,-43.29655447,"county"
"Brazil","Maranhão","Cedral","brazil","maranhao","cedral","municipality","brazil_NA_cedral","brazil_maranhao_cedral",-1.976396151,-44.58551022,"county"
"Brazil","Maranhão","Central do Maranhão","brazil","maranhao","central do maranhao","municipality","brazil_NA_central maranhao","brazil_maranhao_central maranhao",-2.261322905,-44.86974457,"county"
"Brazil","Maranhão","Centro do Guilherme","brazil","maranhao","centro do guilherme","municipality","brazil_NA_centro guilherme","brazil_maranhao_centro guilherme",-2.367512764,-46.12807449,"county"
"Brazil","Maranhão","Centro Novo do Maranhão","brazil","maranhao","centro novo do maranhao","municipality","brazil_NA_centro novo maranhao","brazil_maranhao_centro novo maranhao",-3.083476183,-46.53765238,"county"
"Brazil","Maranhão","Chapadinha","brazil","maranhao","chapadinha","municipality","brazil_NA_chapadinha","brazil_maranhao_chapadinha",-3.729953,-43.326952,"county"
"Brazil","Maranhão","Cidelândia","brazil","maranhao","cidelandia","municipality","brazil_NA_cidelandia","brazil_maranhao_cidelandia",-5.057280447,-47.82982413,"county"
"Brazil","Maranhão","Codó","brazil","maranhao","codo","municipality","brazil_NA_codo","brazil_maranhao_codo",-4.607221664,-43.88617452,"county"
"Brazil","Maranhão","Coelho Neto","brazil","maranhao","coelho neto","municipality","brazil_NA_coelho neto","brazil_maranhao_coelho neto",-4.248230031,-43.11182432,"county"
"Brazil","Maranhão","Colinas","brazil","maranhao","colinas","municipality","brazil_NA_colinas","brazil_maranhao_colinas",-6.051707728,-44.18598975,"county"
"Brazil","Maranhão","Conceição do Lago-Açu","brazil","maranhao","conceicao do lago-acu","municipality","brazil_NA_conceicao lago acu","brazil_maranhao_conceicao lago acu",-3.814794312,-44.8478442,"county"
"Brazil","Maranhão","Coroatá","brazil","maranhao","coroata","municipality","brazil_NA_coroata","brazil_maranhao_coroata",-4.102610383,-44.1451052,"county"
"Brazil","Maranhão","Cururupu","brazil","maranhao","cururupu","municipality","brazil_NA_cururupu","brazil_maranhao_cururupu",-1.777317805,-44.78854943,"county"
"Brazil","Maranhão","Davinópolis","brazil","maranhao","davinopolis","municipality","brazil_NA_davinopolis","brazil_maranhao_davinopolis",-5.598282694,-47.30026718,"county"
"Brazil","Maranhão","Dom Pedro","brazil","maranhao","dom pedro","municipality","brazil_NA_dom pedro","brazil_maranhao_dom pedro",-5.02331336,-44.39537942,"county"
"Brazil","Maranhão","Duque Bacelar","brazil","maranhao","duque bacelar","municipality","brazil_NA_duque bacelar","brazil_maranhao_duque bacelar",-4.099428398,-43.00986872,"county"
"Brazil","Maranhão","Esperantinópolis","brazil","maranhao","esperantinopolis","municipality","brazil_NA_esperantinopolis","brazil_maranhao_esperantinopolis",-4.896160929,-44.89090316,"county"
"Brazil","Maranhão","Estreito","brazil","maranhao","estreito","municipality","brazil_NA_estreito","brazil_maranhao_estreito",-6.782566631,-47.20135044,"county"
"Brazil","Maranhão","Feira Nova do Maranhão","brazil","maranhao","feira nova do maranhao","municipality","brazil_NA_feira nova maranhao","brazil_maranhao_feira nova maranhao",-6.997521573,-46.62459557,"county"
"Brazil","Maranhão","Fernando Falcão","brazil","maranhao","fernando falcao","municipality","brazil_NA_fernando falcao","brazil_maranhao_fernando falcao",-6.238246414,-45.32913537,"county"
"Brazil","Maranhão","Formosa da Serra Negra","brazil","maranhao","formosa da serra negra","municipality","brazil_NA_formosa serra negra","brazil_maranhao_formosa serra negra",-6.527310172,-46.17661484,"county"
"Brazil","Maranhão","Fortaleza dos Nogueiras","brazil","maranhao","fortaleza dos nogueiras","municipality","brazil_NA_fortaleza nogueiras","brazil_maranhao_fortaleza nogueiras",-6.965500108,-46.08186742,"county"
"Brazil","Maranhão","Fortuna","brazil","maranhao","fortuna","municipality","brazil_NA_fortuna","brazil_maranhao_fortuna",-5.668246676,-44.02940217,"county"
"Brazil","Maranhão","Godofredo Viana","brazil","maranhao","godofredo viana","municipality","brazil_NA_godofredo viana","brazil_maranhao_godofredo viana",-1.409712681,-45.78320913,"county"
"Brazil","Maranhão","Gonçalves Dias","brazil","maranhao","goncalves dias","municipality","brazil_NA_goncalves dias","brazil_maranhao_goncalves dias",-5.152006167,-44.17036654,"county"
"Brazil","Maranhão","Governador Archer","brazil","maranhao","governador archer","municipality","brazil_NA_governador archer","brazil_maranhao_governador archer",-4.997493728,-44.21896533,"county"
"Brazil","Maranhão","Governador Edison Lobão","brazil","maranhao","governador edison lobao","municipality","brazil_NA_governador edison lobao","brazil_maranhao_governador edison lobao",-5.718606945,-47.32490204,"county"
"Brazil","Maranhão","Governador Eugênio Barros","brazil","maranhao","governador eugenio barros","municipality","brazil_NA_governador eugenio barros","brazil_maranhao_governador eugenio barros",-5.385297001,-44.06716476,"county"
"Brazil","Maranhão","Governador Luiz Rocha","brazil","maranhao","governador luiz rocha","municipality","brazil_NA_governador luiz rocha","brazil_maranhao_governador luiz rocha",-5.536939487,-44.0932286,"county"
"Brazil","Maranhão","Governador Newton Bello","brazil","maranhao","governador newton bello","municipality","brazil_NA_governador newton bello","brazil_maranhao_governador newton bello",-3.421832386,-45.92077556,"county"
"Brazil","Maranhão","Governador Nunes Freire","brazil","maranhao","governador nunes freire","municipality","brazil_NA_governador nunes freire","brazil_maranhao_governador nunes freire",-2.061702492,-45.81799427,"county"
"Brazil","Maranhão","Graça Aranha","brazil","maranhao","graca aranha","municipality","brazil_NA_graca aranha","brazil_maranhao_graca aranha",-5.414570176,-44.31803778,"county"
"Brazil","Maranhão","Grajaú","brazil","maranhao","grajau","municipality","brazil_NA_grajau","brazil_maranhao_grajau",-5.830156965,-46.06044806,"county"
"Brazil","Maranhão","Guimarães","brazil","maranhao","guimaraes","municipality","brazil_NA_guimaraes","brazil_maranhao_guimaraes",-2.143898882,-44.66050747,"county"
"Brazil","Maranhão","Humberto de Campos","brazil","maranhao","humberto de campos","municipality","brazil_NA_humberto campos","brazil_maranhao_humberto campos",-2.726993774,-43.56300208,"county"
"Brazil","Maranhão","Icatu","brazil","maranhao","icatu","municipality","brazil_NA_icatu","brazil_maranhao_icatu",-2.679237471,-43.87014682,"county"
"Brazil","Maranhão","Igarapé do Meio","brazil","maranhao","igarape do meio","municipality","brazil_NA_igarape meio","brazil_maranhao_igarape meio",-3.646264,-45.202721,"county"
"Brazil","Maranhão","Igarapé Grande","brazil","maranhao","igarape grande","municipality","brazil_NA_igarape grande","brazil_maranhao_igarape grande",-4.652095,-44.845029,"county"
"Brazil","Maranhão","Imperatriz","brazil","maranhao","imperatriz","municipality","brazil_NA_imperatriz","brazil_maranhao_imperatriz",-5.339663615,-47.57525256,"county"
"Brazil","Maranhão","Itaipava do Grajaú","brazil","maranhao","itaipava do grajau","municipality","brazil_NA_itaipava grajau","brazil_maranhao_itaipava grajau",-5.166263317,-45.58693347,"county"
"Brazil","Maranhão","Itapecuru Mirim","brazil","maranhao","itapecuru mirim","municipality","brazil_NA_itapecuru mirim","brazil_maranhao_itapecuru mirim",-3.406054492,-44.26799141,"county"
"Brazil","Maranhão","Itinga do Maranhão","brazil","maranhao","itinga do maranhao","municipality","brazil_NA_itinga maranhao","brazil_maranhao_itinga maranhao",-4.270653296,-47.26034159,"county"
"Brazil","Maranhão","Jatobá","brazil","maranhao","jatoba","municipality","brazil_NA_jatoba","brazil_maranhao_jatoba",-5.856748842,-44.25044186,"county"
"Brazil","Maranhão","Jenipapo dos Vieiras","brazil","maranhao","jenipapo dos vieiras","municipality","brazil_NA_jenipapo vieiras","brazil_maranhao_jenipapo vieiras",-5.369522,-45.635889,"county"
"Brazil","Maranhão","João Lisboa","brazil","maranhao","joao lisboa","municipality","brazil_NA_joao lisboa","brazil_maranhao_joao lisboa",-5.227828578,-47.1246096,"county"
"Brazil","Maranhão","Joselândia","brazil","maranhao","joselandia","municipality","brazil_NA_joselandia","brazil_maranhao_joselandia",-5.013676547,-44.75648605,"county"
"Brazil","Maranhão","Junco do Maranhão","brazil","maranhao","junco do maranhao","municipality","brazil_NA_junco maranhao","brazil_maranhao_junco maranhao",-1.922946875,-46.12055753,"county"
"Brazil","Maranhão","Lago da Pedra","brazil","maranhao","lago da pedra","municipality","brazil_NA_lago pedra","brazil_maranhao_lago pedra",-4.743660288,-45.18683337,"county"
"Brazil","Maranhão","Lago do Junco","brazil","maranhao","lago do junco","municipality","brazil_NA_lago junco","brazil_maranhao_lago junco",-4.541294793,-44.98114669,"county"
"Brazil","Maranhão","Lago Verde","brazil","maranhao","lago verde","municipality","brazil_NA_lago verde","brazil_maranhao_lago verde",-4.002728561,-44.86132007,"county"
"Brazil","Maranhão","Lagoa do Mato","brazil","maranhao","lagoa do mato","municipality","brazil_NA_lagoa mato","brazil_maranhao_lagoa mato",-6.050675963,-43.53622829,"county"
"Brazil","Maranhão","Lago dos Rodrigues","brazil","maranhao","lago dos rodrigues","municipality","brazil_NA_lago rodrigues","brazil_maranhao_lago rodrigues",-4.605758605,-44.93979629,"county"
"Brazil","Maranhão","Lagoa Grande do Maranhão","brazil","maranhao","lagoa grande do maranhao","municipality","brazil_NA_lagoa grande maranhao","brazil_maranhao_lagoa grande maranhao",-4.929841603,-45.40083342,"county"
"Brazil","Maranhão","Lajeado Novo","brazil","maranhao","lajeado novo","municipality","brazil_NA_lajeado novo","brazil_maranhao_lajeado novo",-6.103950589,-46.92454497,"county"
"Brazil","Maranhão","Lima Campos","brazil","maranhao","lima campos","municipality","brazil_NA_lima campos","brazil_maranhao_lima campos",-4.556700366,-44.46472714,"county"
"Brazil","Maranhão","Loreto","brazil","maranhao","loreto","municipality","brazil_NA_loreto","brazil_maranhao_loreto",-7.220587797,-45.21952543,"county"
"Brazil","Maranhão","Luís Domingues","brazil","maranhao","luis domingues","municipality","brazil_NA_luis domingues","brazil_maranhao_luis domingues",-1.40221238,-45.89648775,"county"
"Brazil","Maranhão","Magalhães de Almeida","brazil","maranhao","magalhaes de almeida","municipality","brazil_NA_magalhaes almeida","brazil_maranhao_magalhaes almeida",-3.300459869,-42.1848261,"county"
"Brazil","Maranhão","Maracaçumé","brazil","maranhao","maracacume","municipality","brazil_NA_maracacume","brazil_maranhao_maracacume",-1.982151545,-45.99259395,"county"
"Brazil","Maranhão","Marajá do Sena","brazil","maranhao","maraja do sena","municipality","brazil_NA_maraja sena","brazil_maranhao_maraja sena",-4.742063592,-45.56860374,"county"
"Brazil","Maranhão","Maranhãozinho","brazil","maranhao","maranhaozinho","municipality","brazil_NA_maranhaozinho","brazil_maranhao_maranhaozinho",-2.446966186,-45.98675403,"county"
"Brazil","Maranhão","Mata Roma","brazil","maranhao","mata roma","municipality","brazil_NA_mata roma","brazil_maranhao_mata roma",-3.625880482,-43.2270864,"county"
"Brazil","Maranhão","Matinha","brazil","maranhao","matinha","municipality","brazil_NA_matinha","brazil_maranhao_matinha",-3.071427834,-45.00181709,"county"
"Brazil","Maranhão","Matões","brazil","maranhao","matoes","municipality","brazil_NA_matoes","brazil_maranhao_matoes",-5.388261212,-43.28490835,"county"
"Brazil","Maranhão","Matões do Norte","brazil","maranhao","matoes do norte","municipality","brazil_NA_matoes norte","brazil_maranhao_matoes norte",-3.756678371,-44.47779957,"county"
"Brazil","Maranhão","Milagres do Maranhão","brazil","maranhao","milagres do maranhao","municipality","brazil_NA_milagres maranhao","brazil_maranhao_milagres maranhao",-3.517948257,-42.79821562,"county"
"Brazil","Maranhão","Mirador","brazil","maranhao","mirador","municipality","brazil_NA_mirador","brazil_maranhao_mirador",-6.453651116,-44.95877597,"county"
"Brazil","Maranhão","Miranda do Norte","brazil","maranhao","miranda do norte","municipality","brazil_NA_miranda norte","brazil_maranhao_miranda norte",-3.534989253,-44.52812329,"county"
"Brazil","Maranhão","Mirinzal","brazil","maranhao","mirinzal","municipality","brazil_NA_mirinzal","brazil_maranhao_mirinzal",-2.05851516,-44.84312236,"county"
"Brazil","Maranhão","Monção","brazil","maranhao","moncao","municipality","brazil_NA_moncao","brazil_maranhao_moncao",-3.479518781,-45.32015716,"county"
"Brazil","Maranhão","Montes Altos","brazil","maranhao","montes altos","municipality","brazil_NA_montes altos","brazil_maranhao_montes altos",-5.848163074,-47.02939795,"county"
"Brazil","Maranhão","Morros","brazil","maranhao","morros","municipality","brazil_NA_morros","brazil_maranhao_morros",-2.974269659,-43.77691712,"county"
"Brazil","Maranhão","Nina Rodrigues","brazil","maranhao","nina rodrigues","municipality","brazil_NA_nina rodrigues","brazil_maranhao_nina rodrigues",-3.428987451,-43.81304619,"county"
"Brazil","Maranhão","Nova Colinas","brazil","maranhao","nova colinas","municipality","brazil_NA_nova colinas","brazil_maranhao_nova colinas",-7.144340255,-46.26405453,"county"
"Brazil","Maranhão","Nova Iorque","brazil","maranhao","nova iorque","municipality","brazil_NA_nova iorque","brazil_maranhao_nova iorque",-6.749861197,-44.04008008,"county"
"Brazil","Maranhão","Nova Olinda do Maranhão","brazil","maranhao","nova olinda do maranhao","municipality","brazil_NA_nova olinda maranhao","brazil_maranhao_nova olinda maranhao",-2.895366122,-45.95530276,"county"
"Brazil","Maranhão","Olho D'água das Cunhãs","brazil","maranhao","olho d'agua das cunhas","municipality","brazil_NA_olho agua cunhas","brazil_maranhao_olho agua cunhas",-4.177544587,-45.15395847,"county"
"Brazil","Maranhão","Olinda Nova do Maranhão","brazil","maranhao","olinda nova do maranhao","municipality","brazil_NA_olinda nova maranhao","brazil_maranhao_olinda nova maranhao",-2.975207791,-45.01003431,"county"
